GPSTime,easting,northing,altitude,vel_east,vel_north,vel_up,roll,pitch,heading,angvel_z,angvel_y,angvel_x
1628184886438099,623426.1559558613,4848821.130993794,153.60052515709654,-0.00037609908734583344,0.0006915773230427428,5.552285589771718e-06,1.7168529745600418,-1.328294350492923,-0.15701511573188015,0.0019507456398499487,0.000752970819535672,0.00011579688523393478
1628184886538099,623426.1559603834,4848821.131014302,153.60046651445913,0.0005074757089537247,0.00046039103256520606,-0.00048320088923743334,1.7172198310471392,-1.3282496944640763,-0.1573861190185504,-0.0021579479767773343,0.0012175966298814973,0.0004756332450540393
1628184886638100,623426.1559560425,4848821.130994716,153.60052190518562,-0.0008287446935928494,0.0007232827508259058,-0.000663556713706057,1.7168845203698853,-1.3282947878566613,-0.15702459549179157,-0.0023327947797997964,-0.0017779089935229648,0.0034961819912499893
1628184886738101,623426.1559625312,4848821.131002793,153.6004633659821,0.000386241247528947,0.0005464385409772274,-0.0009468949991489345,1.7172484483543813,-1.3282663732636328,-0.15742490592327874,0.0033931517066287252,-9.883801628379695e-05,0.0064970257345344845
1628184886838102,623426.1559598357,4848821.130989273,153.60049588643886,-0.0011356427742399671,0.000422216898461647,-0.0005178926132298709,1.7170651419943883,-1.3283000232559108,-0.1571914571122585,-0.007221319149117396,-0.0024341479518016395,0.004107508722542476
1628184886938103,623426.1559659834,4848821.130982357,153.6004647541899,-0.0001640907716825766,0.0004967632244753249,-0.0012142557795557039,1.7172666687208735,-1.3283022106124316,-0.15742112409002385,-0.0019305107251340252,-0.0010270140778040743,0.0060253649431145345
1628184887038104,623426.1559599712,4848821.130980076,153.60050214464093,-0.0008854521907166937,0.0009634807478838531,-0.0004824795044315541,1.7170143724818512,-1.3283113262559236,-0.1571774211400609,-0.005712770372625381,-0.0017979627710056503,-0.0013991058142419693
1628184887138104,623426.1559671754,4848821.130976658,153.60045846678977,0.0005581227339500707,0.0005482192887444534,-0.0010678183460006764,1.7173084728536154,-1.328309299785299,-0.1574682566187651,0.0036283116677622027,0.001374455318266607,-0.005920614121880376
1628184887238105,623426.1559603165,4848821.13098059,153.60049540891055,-0.00023593723065557377,0.0006917509666770666,4.7501437235758855e-05,1.7170539166471313,-1.3283080586379246,-0.1572264540026139,-0.0012193471286057063,0.0024356523821992644,-0.004927780569927037
1628184887338106,623426.1559696665,4848821.130974936,153.60044079107135,0.00019436280259292735,0.0002294407908977195,-0.00035329624673310613,1.7174461175743025,-1.3283150984507135,-0.15755702209637673,-0.0004684975097000436,-2.8154732724422805e-05,-0.009701721110277218
1628184887438107,623426.155963268,4848821.130959541,153.60050491672516,-0.0005110236291080247,0.0012332141911311613,0.0002801231780972094,1.7170313184665513,-1.3283493036126628,-0.15716274185476747,0.0009247842593745661,-0.004046806063590051,0.00029873867485486925
1628184887538108,623426.1559702939,4848821.130965455,153.60044743925,0.00028487798075749714,0.0008394649476540373,-0.00024363354349444375,1.7173903413173548,-1.3283246077162985,-0.15755609249394972,0.003030023405151019,-0.004529778302384341,-0.006138645558438125
1628184887638109,623426.1559641577,4848821.130952496,153.60050704566484,-0.0003149630816300656,0.0006853396388426768,0.00012005399602294031,1.7170159813173451,-1.328358472528246,-0.1571689095504666,0.0026368970036019547,0.0017645132557887499,0.003605898916933719
1628184887738110,623426.1559690024,4848821.130965317,153.60046161522368,0.0006528533018404193,0.00034973932631227154,-0.0003980168287155204,1.7173015298228516,-1.3283281389289385,-0.15746537906933314,0.007815106645672216,-0.00013704474172472316,0.00041225958194566613
1628184887838110,623426.1559645802,4848821.13095802,153.6004974295524,-0.0005825177942840723,0.0007421474424552486,-0.00034123440290370285,1.7170857399429202,-1.328350081481299,-0.15721697089009123,-0.005456647426385399,0.00047055345877185006,-0.0011176201165534292
1628184887938111,623426.1559700524,4848821.130959457,153.60046089463546,6.0411168396378535e-05,0.0005938322183671789,-0.0008340335390248061,1.7173073714023144,-1.3283360931466355,-0.15748188776979594,-0.0016123506209216195,0.0028869635642239898,0.004495465180150547
1628184888038112,623426.1559665205,4848821.130947382,153.60049460176432,-0.0008374662698139036,0.00011407476406085225,-0.0004707456566420978,1.7171057014123232,-1.3283646297363978,-0.15725557803306156,-0.0034175276478726328,-0.0005621443421893429,0.0023592179845300498
1628184888138113,623426.1559695961,4848821.13096535,153.60045478299037,0.0005621298772733986,-6.715436905809953e-05,-0.001250842232155261,1.7173644268000277,-1.3283319892102958,-0.157487433648927,0.0014494817696459514,-0.00011989168124470413,0.007993302531493196
1628184888238114,623426.1559648272,4848821.130951264,153.60050586463262,-0.0007292700849927532,0.00020734089406493296,-0.0006544731469434225,1.7170283850058465,-1.328361733167204,-0.15716934646452474,0.004030039665816714,0.0010972353169906683,-0.0007745112694274819
1628184888338115,623426.1559719237,4848821.130961856,153.6004349132209,0.0004657590759576119,0.00040267774989147205,-0.001219197813862414,1.7174768449720779,-1.3283270467804107,-0.15764761759369275,-0.0033343779457395794,0.0034275369455055724,0.005279966287577298
1628184888438115,623426.1559655329,4848821.130954247,153.6004971115235,-0.001237762134140035,3.2567393702556614e-05,-0.0006518195265199446,1.7170628064147928,-1.3283490022225855,-0.15725171438950347,-0.005771195916125821,-0.003162653351238779,-0.0046711367770201516
1628184888538116,623426.1559709623,4848821.130968016,153.6004352424963,0.0004161650251426839,-0.0002597621015045748,-0.0007860658923052911,1.7174657862614073,-1.328317276914697,-0.15764145537026836,-0.0022902733287405042,0.0023890819816278133,0.0018034921766579984
1628184888638117,623426.1559631652,4848821.130969658,153.60049096397367,-0.0008151730957912579,-4.110016347440355e-05,-3.568867086432305e-05,1.7171317981079572,-1.3283370064513114,-0.15720935665139915,-0.0005155964605679674,-0.002444552642462677,-0.006754197021258449
1628184888738118,623426.1559661725,4848821.130987189,153.60045086320127,0.0004595021455936649,0.00028604043995761135,-0.00030116669352801416,1.717349648791895,-1.3282916977264578,-0.15750354190947052,0.005654070154541478,-0.0009686196633259867,-0.0005041252299160351
1628184888838119,623426.1559579942,4848821.1309926715,153.60050458090555,-0.000917546445283189,0.000541522601730056,0.0003043315626342441,1.716987619024126,-1.3282920268998832,-0.1571489819626671,-0.0023421960456443346,0.0021286193713129084,-0.005350145902118357
1628184888938120,623426.155966679,4848821.13097377,153.60047186382832,0.0003118292417717889,-0.00036827011826547285,-7.046239452636281e-05,1.71722092232852,-1.3283161894416469,-0.15739217585892434,0.006380068240225062,-0.00040047933969159053,0.0034368080608987075
1628184889038120,623426.1559639042,4848821.130949677,153.60051392593374,-0.00025194180701673734,-0.00013202094076005232,-1.788109639843346e-05,1.716970048802984,-1.3283639651806318,-0.1571290589942509,-0.00563961808378518,-0.003189261987139892,0.0006551468415397266
1628184889138121,623426.1559683635,4848821.130970743,153.60045774821427,0.0006168166627906674,9.882435891608406e-05,-0.0004027050529928688,1.7173517485191434,-1.3283277888147957,-0.15744500495401162,-5.289438899593358e-06,-0.00038212739753544424,0.00024045907261577737
1628184889238122,623426.1559630309,4848821.130961559,153.60050823497136,-0.00048729262142071454,0.00038181765247173274,5.00072557140046e-05,1.7170145427405517,-1.3283483542603804,-0.15713362218234708,0.0020186870060020586,0.0027749528387866276,0.0018555160725603267
1628184889338123,623426.1559715777,4848821.130960664,153.60044232640055,0.0003681915561035182,0.00018566321071410196,-0.0007362064835842766,1.7174545699811732,-1.3283375721091957,-0.1575721109158982,-0.0037584760049751567,0.002547469732989347,0.012275763591162406
1628184889438124,623426.1559674809,4848821.130937233,153.60050647799955,-0.0009920989317870985,6.49471330701076e-05,-0.0005148738966570068,1.7170481969687779,-1.3283874135017522,-0.15716917157426782,0.0028350976071332594,-0.004402023582397783,-0.003748137077526323
1628184889538125,623426.1559748356,4848821.130933595,153.60044984260676,0.0002967295927284621,-2.2527531245521514e-05,-0.0007388918344014953,1.7174076725741951,-1.3283759695672026,-0.15758105225989616,-0.0021096494530444096,0.002512352501788869,0.016015927467184082
1628184889638125,623426.1559687988,4848821.130932153,153.60050600714158,-0.001504623210562352,-0.0009649394324768632,-0.0009467005956784442,1.717057838776826,-1.3283967098329355,-0.157174074189462,-0.0052618863489285505,-0.002560865744623966,-0.005004280717984317
1628184889738126,623426.1559716061,4848821.130944822,153.60046049538113,0.001076213214434396,-4.584459711860127e-06,-0.0005774680234510781,1.7173513521103063,-1.3283684225593957,-0.1574586732719295,-0.0044380606325417175,-0.0018820451117619818,0.009726810139448986
1628184889838127,623426.1559686222,4848821.130945978,153.6004799806029,-0.0008029888125283186,4.892553542944512e-05,-0.0008140497872625615,1.7172276910413191,-1.3283730088413546,-0.15730633851872025,0.002787385792836305,-0.0010626411539480566,-0.009734789063152888
1628184889938128,623426.1559764035,4848821.130919744,153.60045272136995,-5.7614004788418706e-05,0.0008677937144586591,-0.0008568450837180093,1.7174040793240701,-1.3284002373273225,-0.15756295795484934,0.003630147631110111,-0.0002776060098737903,0.009045610735989213
1628184890038129,623426.1559660137,4848821.130940166,153.60051618387502,-0.001620060177005935,-0.0004933827344442447,0.0003269416502995188,1.7169376673112524,-1.3283741356364256,-0.1571454236672424,0.0007991677410373083,0.0007723324086316785,-0.012868360738045117
1628184890138130,623426.1559712959,4848821.130941558,153.60046888751558,0.0012891770264876177,-0.0013078698439596365,-0.0006414742557038816,1.7172615574805004,-1.3283659061322803,-0.15745303090598492,0.0017569868041052911,-0.002726725405648515,0.0041953246874074975
1628184890238131,623426.1559628978,4848821.130956862,153.6005123247497,-0.0003062078674619848,-0.000826613227599325,0.0004792027079014684,1.716994383042643,-1.3283599355365308,-0.1570957693772424,-0.00018445865961563303,0.00262090239739507,-0.011514916440322464
1628184890338131,623426.1559718879,4848821.130957225,153.60044382690972,0.0002411718532277707,0.00022052973376314317,0.0001263636043606624,1.7174378360751343,-1.3283416830069479,-0.157568928828519,0.0008653378300350113,0.0005470991379346389,-0.0006680963836821146
1628184890438132,623426.1559682689,4848821.130915507,153.6005297597601,-0.001481950359596377,0.00020252451864812373,0.00018265251966274532,1.7168871743359393,-1.328419052803689,-0.1570761643694529,0.0002063972976609795,-0.003214959862648455,-0.000991607567260534
1628184890538133,623426.1559748682,4848821.130925398,153.6004698332796,0.0004462214765993752,-0.0005264634702195751,-0.0002898418724952443,1.7172731797010037,-1.3283912340661301,-0.1574692002784651,-0.0015074625646566624,0.0014498851579511044,0.002777211734954251
1628184890638134,623426.155962715,4848821.130949281,153.60052668274813,-2.5576738629433062e-05,-0.0006308042876544547,-1.1795594867106169e-05,1.7169010056700333,-1.3283715068361486,-0.15702910323928404,-0.0002651221763710209,0.002478509440282786,0.0018674071237160105
1628184890738135,623426.1559732584,4848821.130942924,153.6004554950691,0.000648578816468346,-0.00073832262241572,-0.0007391441694067405,1.717370134646608,-1.3283655217401855,-0.15751993209682738,0.0007783168680460258,-0.0028461414973090823,0.007619679123699026
1628184890838136,623426.1559682012,4848821.130939415,153.60049384956045,-0.0013418441042367764,-7.938364091338978e-05,-0.0010828495535584112,1.7171607717296087,-1.3283905433621965,-0.1572063574712538,-0.0009862422019907648,-0.0035704595573690144,-0.003639076278743498
1628184890938136,623426.1559720772,4848821.130948854,153.60045929086036,-0.00039796805295849117,0.0006506569304881494,-0.0006463633407513693,1.7173372745764084,-1.328354962786323,-0.1574945818238299,-0.0020979636180820664,-0.0011785000090326298,0.01149821005196661
1628184891038138,623426.155968705,4848821.130925407,153.60051042497537,-0.0007433230775328767,-0.0003750022267027316,-0.000429061034161328,1.7169953282618835,-1.3283964258685959,-0.15720639625185967,-0.0017326139774752627,-0.0007667272615395632,-0.006300848665661954
1628184891138139,623426.1559777404,4848821.130909581,153.6004554009313,0.001153408573001868,-0.001225217171087295,-0.0008938938763018981,1.7173770731214653,-1.3284118240421217,-0.15758917697635866,-0.004773442192417377,-0.001596739188163771,0.008659213171946708
1628184891238140,623426.155970218,4848821.130933501,153.600486816523,-0.0008149927609777625,-0.0013402912234110097,-0.00034140575548153825,1.7171561276198728,-1.328384194996917,-0.1573259029469617,-0.0011856690571434747,-0.001208984321977294,-0.012503152530359466
1628184891338141,623426.1559731752,4848821.13094826,153.60043874843123,0.0005256074658258731,-0.00026178658426302497,-0.0003861731811635221,1.7174814753436252,-1.3283545880322185,-0.1576160337487167,0.002741421465144935,-0.0003933522664344203,0.014681662087333803
1628184891438142,623426.1559711056,4848821.130928441,153.600489985701,-0.0015607244732461767,-0.0006254457088265929,-0.0005404097976428661,1.7171284593109062,-1.3283881592214373,-0.15733223346040964,0.0024534088818813278,0.0016833136960290548,-0.014250011059761472
1628184891538142,623426.1559689991,4848821.130956176,153.600462223369,0.0008940807626977385,-0.0003445270641768591,-0.00015256687771687547,1.7172745571675576,-1.3283350263689793,-0.15750638515823523,-0.0012832381508407552,-0.0010218065776496322,0.007644913762349021
1628184891638143,623426.1559653763,4848821.130967808,153.60048152439992,-0.0003444789114397289,-0.001732129985099226,-6.425775567016532e-05,1.7171765290613685,-1.3283337028412254,-0.1573022797052734,0.0026430910316084023,0.00354355069225145,-0.01710475438865867
1628184891738144,623426.1559682526,4848821.130955861,153.60046749887834,0.001101908733291138,-0.00011157697769289751,0.00010016846067324678,1.7172732993530373,-1.32834553860273,-0.15743033060074,-0.000774097366149829,0.0010549089884095712,0.011782663040524765
1628184891838145,623426.1559674705,4848821.130963529,153.60047401831847,-0.001247412210768829,-0.0007295545564423935,-5.155418553401945e-05,1.7172281836703025,-1.3283369535538223,-0.15736031896391275,0.006300761473485224,-0.008016112876932227,-0.014711479805302836
1628184891938146,623426.1559653203,4848821.130959352,153.60049050314174,0.000550560258014051,-0.0006663117872844239,-0.00013863489788618953,1.7170857811966158,-1.328334169969199,-0.15732781977728355,-0.00023452847030152127,0.0021142852679321847,0.014381234007799362
1628184892038147,623426.1559673175,4848821.130968221,153.60047090430683,-0.0004440692162281898,-0.0022625551325643287,0.0003875773894121243,1.717240009923939,-1.3283283541570527,-0.15738755176253577,-0.0010817292656125185,0.000946540579976555,-0.017837982576042365
1628184892138147,623426.1559631997,4848821.130957898,153.60050999199302,0.0007848215953631432,-0.0009661745015769632,0.00012580282932510663,1.7169937028295186,-1.3283522974140167,-0.15714355558912316,-0.004520641594248743,-3.70962129927463e-05,0.012922581719227107
1628184892238148,623426.1559679927,4848821.130970806,153.60046298847558,0.0001626030073161379,-0.001384500792488168,-0.0004461119774092984,1.717279391042812,-1.3283179714065751,-0.1574618085048443,0.0017332189183187853,-0.002350567984593782,-0.0109420027447721
1628184892338149,623426.1559648078,4848821.130958004,153.6004959316388,-0.00043022263280623045,-0.0013707640904923456,0.00040310583571450125,1.7170829262439697,-1.3283475106386322,-0.15724280352526074,-0.0047741995220062115,-0.0002965273946392065,0.012446470247325902
1628184892438150,623426.15596862,4848821.130959396,153.60047822591937,-6.982952832635444e-05,-0.0025899178867259784,-0.0011501032084206423,1.7171917385385993,-1.3283404734204969,-0.15737258307472057,0.004899636358247462,-0.0005361369446885469,0.0012792194228339647
1628184892538151,623426.1559608808,4848821.130975495,153.60050287367667,0.0004752431789267487,-0.0015220801661274888,5.516833524759741e-05,1.7170205760874817,-1.3283207227962182,-0.15718338445615893,-0.004361321212794515,0.0011221279965121362,0.010928762789387658
1628184892638152,623426.1559714377,4848821.130960033,153.60044406852558,-0.0006372612548065457,-0.0015534975800670908,-0.0006215398749596036,1.7174343943606052,-1.328337925504864,-0.15756368890479852,0.004507491127578913,-0.00016613473158773683,-0.007689624056137368
1628184892738153,623426.1559677905,4848821.130949256,153.6004851238263,-0.0005263398203789849,-0.0012810828437782647,-0.0006246864499776433,1.717161848054205,-1.3283603433481064,-0.15732205771652144,-0.004301254176616923,-0.003743229291228557,0.009504424112005942
1628184892838153,623426.1559657785,4848821.130969499,153.60047984433498,-0.00017857080953573334,-0.002237215354797016,0.0004857640645591279,1.7171850500049726,-1.3283298458660047,-0.15731320751932623,0.0017654819940713738,-0.0020453142577895006,-0.004372230962432345
1628184892938154,623426.1559667148,4848821.130959112,153.600478071688,0.0010316109742866792,-0.0009731247872924966,-0.00017004261290980843,1.7172074722614858,-1.3283457233892275,-0.1573463555698601,-0.0006515439608017228,0.002113715094871796,0.0030587185031390835
1628184893038155,623426.1559707145,4848821.130950095,153.60046056051797,-0.0008434317216350921,-0.002087560524260845,6.211122728103842e-05,1.7173108379065096,-1.3283501247047627,-0.15749210492028834,0.002039304777307502,-0.0007803874426380099,-0.008251866535509791
1628184893138156,623426.155970171,4848821.130938867,153.6004811964216,-0.00016026042884341896,-0.0022286535651000246,0.0002026467378412673,1.7171968099918853,-1.3283769949363804,-0.157357429173017,-0.0020323762512395745,0.003812434318882131,0.005500946181992385
1628184893238157,623426.1559688504,4848821.130945929,153.6004886808215,-0.0007016004607513945,-0.0025834020001562585,-0.00032584415720636,1.7171617384787463,-1.3283724949445355,-0.1572717757768281,0.0008045244517587853,0.0004828160454750578,-0.011125625721411117
1628184893338158,623426.155965465,4848821.130954194,153.60049892043418,0.00033442248685861366,-0.0017596196983351382,0.0007937551376195247,1.7170915747724407,-1.3283641820445282,-0.1571834637846395,-0.0024754452679460683,0.003889791474473725,0.01178438553193179
1628184893438158,623426.1559743261,4848821.1309057325,153.60049888053194,-0.001172580520668512,-0.0023039355672740255,-2.602087778280296e-05,1.7171245358027045,-1.3284381269499448,-0.1572464453506013,0.004350773113346105,-0.0012585093182914237,-0.003181815444945329
1628184893538159,623426.1559707498,4848821.130895041,153.60054263576498,-0.00041693146534585847,-0.003135481066841448,-0.0004043969428927668,1.7168577193656387,-1.3284675727024797,-0.15696623915317523,-0.003535682803449511,0.005533681506241715,0.008812373285440758
1628184893638160,623426.1559715569,4848821.130906455,153.600521061042,0.0008916425793138274,-0.001794009637407811,0.001579156708248282,1.717040641420831,-1.3284623369855284,-0.15700183800204187,0.0028767980774844484,-0.0016360638304957402,-0.008814580460854232
1628184893738161,623426.1559699775,4848821.130925698,153.60049605664054,0.0003767800930496777,0.00017304963524037638,-0.00027452560494721213,1.7171076114736081,-1.3283985685720558,-0.15727591558604048,0.0032538900290718115,0.0018207147423118632,0.0034115990112643635
1628184893838162,623426.1559740035,4848821.13091642,153.6004921811128,-0.0018484668903881512,-0.003129983849460424,-0.00020633206001570352,1.7171304836351686,-1.328409909672188,-0.15733314260538278,0.004930607008830475,0.00014983979487735624,-0.004207661557116169
1628184893938163,623426.1559678941,4848821.130903357,153.60055262118402,0.0007254404943277926,-0.0037514404303385577,0.0009396769302028099,1.716772025953567,-1.3284547828573232,-0.1568949293806004,0.00024017201050095967,0.0016725218051576235,0.004144648069144218
1628184894038163,623426.1559788579,4848821.130912734,153.60044131788794,0.0010516985388443194,-0.002539550467872899,-0.0001716684274143306,1.7175462150799543,-1.3284296069921986,-0.15755564453301404,-0.0021409681916132292,-0.0037122148870766905,-0.00487918645285955
1628184894138164,623426.1559767071,4848821.130879305,153.60050817221415,-0.0012799427117600524,-0.000833894566922971,0.0006132800785647581,1.7171049829790923,-1.3284870817645014,-0.15718930482050372,0.0006371218977854893,0.0008366012302957303,0.003432278004617647
1628184894238165,623426.1559763941,4848821.130883958,153.6005149430292,-0.00015373530831662376,-0.0026410853323868997,0.0003979165746508359,1.7170038264307028,-1.3284659395195295,-0.15721691630345594,0.0009390595562116316,-0.0010313783548857702,-0.004475479661272886
1628184894338166,623426.1559743778,4848821.130891161,153.60050579813617,0.001074829331283218,-0.0039744071914092184,0.0004966949640112398,1.7171049650531456,-1.328466605160266,-0.15720741057674256,-0.006071518941766138,0.0013082945777568727,-0.002498550616220535
1628184894438167,623426.1559809729,4848821.130883652,153.60046895917995,-0.00012953319094744723,-0.0025940661730260665,0.0003809735966483231,1.7173866997910117,-1.3284812085601838,-0.15740562589771853,-0.0018879687469849481,-0.00045105617229712803,0.0004983081369261621
1628184894538167,623426.1559762091,4848821.130887853,153.60049773445252,-0.0005812172502321245,-0.0014168868367513932,0.0006446080028793451,1.7171710614418811,-1.3284728556718202,-0.15724236889169593,0.0015953620542432476,0.002397322514610048,-0.0009512888981103355
1628184894638168,623426.1559786536,4848821.130887801,153.60048458612854,0.0010754255614675115,-0.003044354773228891,0.0003164157008325094,1.7172361271297119,-1.328463731920205,-0.15736800696610428,0.00031624626155471534,-0.004454739985128584,0.001499788638253013
1628184894738169,623426.1559781436,4848821.130878887,153.60048579111736,0.0014137355434877463,-0.0027812212504110864,0.0006869577007567909,1.7172648101094985,-1.3284872341939822,-0.15732484222573595,-0.001555155073160607,0.0020055937228470157,0.004469490604380211
1628184894838170,623426.1559866831,4848821.130868982,153.60044100787832,-0.0012941783377473414,-0.0031212703446772865,-0.0004951386527304344,1.7175691094690093,-1.3284933877537801,-0.15763339289962067,0.0026781425440844863,0.002402120936969567,0.0017998084667876382
1628184894938171,623426.1559746412,4848821.130865196,153.60054677119516,-0.00012149003375115907,-0.001211873999484671,0.0012658942018466957,1.7168621837403175,-1.328517702452884,-0.15695503264620597,-0.0013738502135379638,-0.0017211115731372768,0.005591517589773273
1628184895038172,623426.1559889744,4848821.130842707,153.60045033200458,0.0020422989640926765,-0.0036782163782162116,0.0007909536911251697,1.717483021034709,-1.3285234012574765,-0.15766428670609892,-9.792176401860786e-05,-0.0017324746013230679,-0.0142567701810675
1628184895138172,623426.1559890944,4848821.130840681,153.60044695632433,-0.0007371254188584364,-0.004120980660472044,0.0004459876491503909,1.7175359053508414,-1.3285335736574662,-0.15765616990945386,-0.005006299524190804,-0.0026424255357673453,0.01139608009437357
1628184895238173,623426.1560192127,4848821.1311088195,153.60043532831205,-0.00014593183702338026,0.004876573662095313,-0.0014622808449845938,1.7172476118041187,-1.3285422431266773,-0.1573075925675285,-0.001353714773459247,0.0018386054352001156,-0.0034216540342496484
1628184895338174,623426.1559442367,4848821.131783119,153.60015457398575,-0.0020713321570012336,0.006494953910724183,-0.0024538991673082058,1.7175434178531843,-1.3285391410195264,-0.15761168462969347,0.001701642898335806,0.0033310027263083537,-0.0007723623527505591
1628184895438175,623426.1558278637,4848821.132364213,153.5998455869142,0.0004034358305354893,0.0062743514631843035,-0.002403897155877338,1.7179282559536038,-1.328491845447564,-0.15812026113478703,-0.0006499055079015149,0.0012199370451206593,0.005396775829124727
1628184895538176,623426.1559162899,4848821.133146815,153.59960968822745,0.0013961772850242774,0.010395359218556114,-0.00270284669691277,1.7180640382725008,-1.3284829290689588,-0.15823992397141862,-0.0007386101705475672,0.004331702521303205,-0.003989596633491482
1628184895638177,623426.1565564491,4848821.134222834,153.59908563968392,0.014987613435306489,0.011848995117273404,-0.006195516178442476,1.7190508872843377,-1.3284730294123193,-0.1591648899189865,0.00039671524416269545,-0.0004131520292752297,-0.0039254284326702945
1628184895738178,623426.1593373836,4848821.135837823,153.5978545905883,0.04242138398827561,0.018256615086718955,-0.009784110774205174,1.7215685672507717,-1.3282866656265386,-0.16168967938016998,0.0012433706288716318,-0.0021626492704475797,-0.01937548989866059
1628184895838179,623426.1653063209,4848821.138230368,153.5965334816653,0.07852589692884426,0.02924418719919626,-0.008945936651852126,1.7239546270587225,-1.3279920026541303,-0.16393587418502573,-0.005164731776449883,-0.0018536182188152628,-0.006855729048228864
1628184895938179,623426.1754368788,4848821.141583551,153.59522700045085,0.12602906198540537,0.03921331325127334,-0.005991309446533762,1.7274064467754264,-1.3276644342911204,-0.167212767204897,0.0039196206914698375,-0.0006292400909523377,-0.02111679539782654
1628184896038181,623426.1907591735,4848821.146163081,153.59470282324153,0.17560873440324107,0.05614369296545349,0.00519016968830471,1.7299763795118586,-1.3274586182038068,-0.16971132871802055,-0.004696156265605754,0.0012455497591261986,0.003289054422815129
1628184896138182,623426.2095608639,4848821.152111197,153.5966221976987,0.19416688080332603,0.06747282618229272,0.016944172981092694,1.7263226915023058,-1.3277345672639698,-0.1654573828677044,-0.011093340317799434,0.0025795615301568383,0.028703072702081316
1628184896238183,623426.2291825325,4848821.158676499,153.5987446684787,0.2004537365253674,0.0671395838980514,0.005384825357053454,1.7217123550929432,-1.3282654967961738,-0.1598732944313888,-0.014699396622621002,0.0008513438013420161,0.008102237734033886
1628184896338184,623426.2500368021,4848821.164710606,153.59849977295764,0.21572416208418518,0.059589629942573816,-0.0021401363780921183,1.7235724279156974,-1.3286603853675338,-0.16139737280697738,0.005563512187636404,0.0027043963469188417,-0.011099089323519865
1628184896438184,623426.2724439019,4848821.1700293645,153.5987571964162,0.2300075297551378,0.05817733271746116,0.003119142648329045,1.7231070344565809,-1.3292851643959709,-0.16089441564957602,-0.006069422498905918,0.007181721434596557,0.014042891083845899
1628184896538185,623426.2961154918,4848821.174731449,153.59918515879028,0.24249646486952653,0.05351026749932236,0.002102866806804402,1.723118557231039,-1.330377241793923,-0.1610020902080164,0.01281382984328871,0.013526426301659726,-0.01073965552501783
1628184896638186,623426.3214160983,4848821.179217846,153.59951706729208,0.2610332537192034,0.05586966823529977,0.00423652770691698,1.723652047287931,-1.3316457882188446,-0.16198972590352528,7.473005374745847e-05,0.014548788395162479,0.014599760955797457
1628184896738187,623426.3483710069,4848821.184098457,153.60033866389952,0.2742067750013837,0.05947590817850165,0.004883992142007683,1.7227370656702303,-1.332853867766674,-0.16125595022542585,0.002274324560537188,0.012854440230230035,-0.003061799137704611
1628184896838188,623426.3765979289,4848821.189245697,153.60094088674572,0.28914730833569746,0.06885636173078483,0.0015967196434400156,1.7223843620268005,-1.3344792775322816,-0.16079233406016372,-0.005013241418476597,0.026318547056482875,0.009397539324050035
1628184896938189,623426.4070240663,4848821.194597827,153.60081931567737,0.3180198679545715,0.0746453279911642,-0.001586303348624911,1.7251587679061329,-1.3369282199816452,-0.16334742221607906,-0.0037488874265743303,0.02906433786254027,-0.013276212033750893
1628184897038190,623426.441501583,4848821.19994528,153.60021573992557,0.3708705666927104,0.0741452102643565,-0.005623407967919299,1.729330262542169,-1.3398662619481356,-0.16736486761922248,0.0019242257856173664,0.03412125182536054,-0.009932275301800905
1628184897138190,623426.4827156593,4848821.205053201,153.59897009794503,0.4514525209822066,0.07684693514526061,-0.005554448083613496,1.7362088723656848,-1.3432753684341385,-0.17444678588699322,0.009606686588611649,0.042311244606216686,-0.019760344570384544
1628184897238191,623426.5335662796,4848821.210060956,153.59816076868958,0.5610402076354274,0.08850801053567217,0.002396435291752961,1.7441561267606307,-1.347714091156677,-0.18291725466249584,0.011254399294265178,0.056674483452533606,-0.01504961161569751
1628184897338192,623426.596641211,4848821.215273933,153.5984126272107,0.6912121382976997,0.10580445179248135,0.009257255249851354,1.7519381336612025,-1.3537519013292265,-0.191334740230733,0.010844346913594224,0.07312274432413379,-0.004452131545436652
1628184897438193,623426.6733659834,4848821.221620016,153.5994612398102,0.8285716450359173,0.13476694519092464,0.010485064775849009,1.759308160218305,-1.3616004070188377,-0.19917509249012869,0.0069937824768058765,0.08780813692968525,0.003283206105769242
1628184897538194,623426.7638256188,4848821.229839457,153.60046794256633,0.9636955760299005,0.1636064532982017,0.008276464179317652,1.7685828600192142,-1.3713586050262963,-0.20797451757547283,-0.0028529949852867174,0.11143573208363493,0.0053089762440922195
1628184897638195,623426.8676541934,4848821.238300439,153.6016930437161,1.0956277321896348,0.15650158674897408,0.01376075545354434,1.7798781821413883,-1.3827630078614301,-0.21835291627655007,-0.003247823594131676,0.12374253815187121,0.012878763373957512
1628184897738195,623426.9845560244,4848821.243724527,153.6037601453508,1.2248273092731807,0.1222000048678556,0.018331735067212477,1.7917283854968071,-1.3950555580127644,-0.23051412626938245,0.012512020822965124,0.12455339688636127,0.010171090904370909
1628184897838196,623427.1137903916,4848821.244627443,153.6058200805362,1.3439041445894957,0.09781218220313408,0.01806244386813089,1.8082133710336479,-1.4087045614620248,-0.24914393174661245,0.02627001362984178,0.14931098971880716,0.01463659522266606
1628184897938197,623427.2549162522,4848821.2428326085,153.60730367907985,1.4657432914831923,0.09915571356318567,0.011283745091342851,1.833882699209144,-1.4243327236995234,-0.27719543780465716,0.020512501471456255,0.16411999659760837,-0.0008708407259022532
1628184898038198,623427.4084143174,4848821.241143323,153.6077395704768,1.5937072746341507,0.1164970956966673,0.005250804829243349,1.8736794223215034,-1.4410413053915805,-0.3182719987059847,0.004681342088287126,0.1794895203684814,-0.01233253879563245
1628184898138199,623427.5751130077,4848821.241371895,153.60817784719396,1.7324103375528335,0.13227483631745232,0.00873458393460455,1.925743793038395,-1.4583410881450278,-0.36910220000409233,-0.025386779701128938,0.1846781111232616,-0.0016392193941820723
1628184898238200,623427.7555813591,4848821.240680279,153.60980629060163,1.8732477975002477,0.09271552967763382,0.016638711138395858,1.9886057021286045,-1.4754824554556896,-0.4300422383566911,-0.0012452237353638407,0.18219376238741777,0.014185258679990669
1628184898338201,623427.9494152595,4848821.2338393945,153.61283192577784,2.0035077604112264,0.028886451079020464,0.025565462440425638,2.0674981588553636,-1.4922051661242692,-0.5093772192349245,0.017106545188856997,0.18070236538982712,0.03811889006112913
1628184898438201,623428.1551826968,4848821.221061284,153.61536535276105,2.1187474297958295,-0.01585642309200827,0.010313224999787325,2.1915236218388547,-1.5080612795462232,-0.6354659232690566,0.026576532162001808,0.17987784856484698,0.004631876132792956
1628184898538202,623428.3719796961,4848821.20589995,153.61560071128508,2.2249982494404534,-0.031223987149205726,-0.0022178367955559206,2.39745962504076,-1.5209982284240313,-0.8439883282839428,0.01695287043333553,0.16361375717563484,0.01087172854172992
1628184898638203,623428.5991720272,4848821.191020548,153.61418193843008,2.3298923831814378,-0.03401527712167676,-0.004546053043205378,2.698822523220133,-1.5287699210833827,-1.146823792781117,0.004288613720838009,0.14986686159480744,-0.047417938040179346
1628184898738204,623428.8371471701,4848821.1763465,153.61367342154333,2.4467233515607054,-0.04061191763075443,0.012563901323198595,3.046446316221681,-1.5310523452118332,-1.495222938693068,0.004333542103734587,0.13366306496026525,-0.00015322867969082293
1628184898838205,623429.0878151989,4848821.162767298,153.61492125598065,2.5790512673196795,-0.03857815908035759,0.010666334035664596,-2.9328894045927747,-1.5300143441957064,-1.7986535624812423,-0.0012776809935590373,0.10863939481149305,0.009869905892461533
1628184898938205,623429.3508802115,4848821.1494406555,153.61686461699367,2.6898774707643343,-0.07265927295937082,0.01201040062030051,-2.7065125081867283,-1.5280000890016041,-2.024214116625798,0.024837870373034397,0.07698395661307246,0.014534770987361991
1628184899038206,623429.6244607118,4848821.133474483,153.61858006435787,2.792231962487613,-0.09828763177314791,0.0064785036043177174,-2.545597835580074,-1.525308882740178,-2.185997191038309,0.003813134540607721,0.07152602734740557,0.019076610080011058
1628184899138207,623429.9074003677,4848821.117539508,153.6192552008359,2.87650699542017,-0.09330556426005346,0.003854376019538204,-2.4327971552370014,-1.5218392595083423,-2.29848694597418,-0.008790297041834426,0.05582285823198211,-0.010058940362436987
1628184899238208,623430.1991456305,4848821.102901066,153.61997076036346,2.9702558879754237,-0.09469044407878471,0.010894204420986611,-2.3651260030834163,-1.5187961558597798,-2.366333681289234,-0.005945180659614499,0.033301467676001645,0.008215159739468654
1628184899338209,623430.5003236992,4848821.089485811,153.6217720190752,3.0556840941768155,-0.1005654199633437,0.020076581067139478,-2.340295933450942,-1.517929610156602,-2.391614340586199,0.00274166736728282,-0.004427875302710912,-0.0063116328858164915
1628184899438210,623430.8097304709,4848821.078650073,153.62425396856756,3.136742635593289,-0.0668591849153252,0.025226220430931715,-2.355743922855553,-1.5188544065291743,-2.37655920900012,0.002296615689582506,-0.02364814061232038,0.0002731476511883565
1628184899538210,623431.1277071103,4848821.0743374955,153.627267416465,3.223566181424707,-0.009597239395458368,0.03115744482278665,-2.401336438315059,-1.5213208041887754,-2.3294914641284894,-0.020716295214016186,-0.04634238281989873,0.022032434987814712
1628184899638211,623431.4544929712,4848821.076519333,153.63168511795521,3.305039058457282,0.029840995186626834,0.024925431267839124,-2.4665296439248263,-1.526174218329825,-2.2606130460425327,-0.049402336990916215,-0.06560025781067697,0.030355771213157284
1628184899738212,623431.788964055,4848821.082545243,153.63424999341848,3.375680160819956,0.06384490935573209,0.00788130358173654,-2.575348153137849,-1.5309149648986398,-2.148797229375894,-0.045895867321439396,-0.06892006502501548,0.027844613578805924
1628184899838213,623432.1301638244,4848821.092323471,153.6357157871302,3.433794403805839,0.08595295392163951,0.0026544064909057724,-2.718476786073048,-1.5349765072914523,-2.000984097164443,-0.04261302516191897,-0.07239369333138614,-0.0009792477015379002
1628184899938214,623432.4768540694,4848821.103209233,153.63626870159058,3.4935168921446373,0.09622771616439695,0.01402454906047216,-2.9081254618068217,-1.5365174973934397,-1.8078557595337066,-0.04757400705740879,-0.06777087051214019,-0.016092366396119627
1628184900038216,623432.8301087989,4848821.11482934,153.6381747567636,3.5693388127335552,0.10260972620720042,0.02159920472611842,-3.117038464260365,-1.5370799872074212,-1.5965321804201549,-0.03621685361617264,-0.07965494344490857,-0.07742157904368338
1628184900138216,623433.189115108,4848821.126311537,153.6404923078431,3.6157478213809116,0.10535974891230748,0.05005467723637284,2.9596358139776253,-1.5340155782665683,-1.3886017307180167,0.033416476356499955,-0.07251647381278005,-0.053309645684203176
1628184900238217,623433.55398329,4848821.1396329,153.64481271538682,3.6745469213740876,0.14210429761873072,0.04912133163472615,2.7935518468614,-1.530620096297278,-1.2222532512626094,0.007648992992401297,-0.06766121546792535,-0.04601667134275415
1628184900338218,623433.9244265533,4848821.157553325,153.64717928506744,3.726664977648434,0.18745240653644918,0.03223271396059209,2.6738026159425976,-1.5246969235456693,-1.101391870646686,-0.02739848713386882,-0.07662455207793789,-0.0919300439455618
1628184900438219,623434.3006836621,4848821.18004898,153.64765717286684,3.788920703086893,0.225099623159066,0.01601310799497252,2.569109837933938,-1.5180119148586553,-0.9946836513475609,-0.03187421531633308,-0.07666494272017853,-0.0420653601932032
1628184900538220,623434.6836306214,4848821.206367248,153.6478248180412,3.8619366531760972,0.2553461596178862,0.025199950453871814,2.4814587338697094,-1.5114530051194242,-0.9042562928738591,-0.025442913434541727,-0.07302142914709407,-0.032574747804747214
1628184900638221,623435.073063065,4848821.23468323,153.6517812559709,3.914509232056534,0.28325927580849464,0.04229476481039007,2.390362516023458,-1.5066888966249767,-0.8120165835722283,-0.026555419909619408,-0.068706166066189,0.0322853259854816
1628184900738222,623435.4671417249,4848821.267322013,153.65658667005653,3.956349844350052,0.3312367352605054,0.05506934432670341,2.3206744389208667,-1.501349067235736,-0.739859973405756,-0.0438844549927017,-0.05834987893923666,-0.010157797127966679
1628184900838222,623435.8655136091,4848821.304395469,153.6649921028759,4.001921673738788,0.3716479459376947,0.094186885400564,2.250638513357604,-1.4958971080091803,-0.6671694478038322,-0.04097157574196085,-0.0730146426883148,-0.021121915594072983
1628184900938223,623436.2678521253,4848821.344052895,153.6749827435203,4.0455508467143995,0.3793180354568772,0.10790947824553095,2.1946477920838747,-1.4892963225943734,-0.6084327556294725,-0.007641724727430582,-0.0768062168159489,-0.012933122773127385
1628184901038224,623436.6740233246,4848821.382867399,153.6857899262348,4.074126418143531,0.3800077982556804,0.09736299291793449,2.1412359016113753,-1.4832168279463716,-0.5554773305340045,0.0044061796107831615,-0.07418415696999846,-0.005534514337771291
1628184901138225,623437.0835054602,4848821.422629726,153.69279013439848,4.112578045943102,0.4007777586018786,0.06873764340344529,2.114769502830611,-1.475913923975268,-0.5299627896107982,0.025290921900931976,-0.074969200490058,-0.06188233360295249
1628184901238226,623437.4971115245,4848821.465732334,153.6979961688503,4.1495827918457024,0.4490924299007114,0.07190400682837814,2.100577221741841,-1.4682548482870699,-0.5163975810303015,0.011251452342898687,-0.06961681457028175,-0.055874671486809316
1628184901338226,623437.9144212237,4848821.514024823,153.7034534754097,4.1906469456777184,0.5075703512579401,0.08264023104900131,2.0990876126629434,-1.4605476133840882,-0.5144333333480772,-0.004639888468831924,-0.06975445176772778,-0.06257865432740639
1628184901438227,623438.3369567696,4848821.5678763585,153.71063036982017,4.252851737449135,0.5570486851496369,0.10530455337818159,2.097672716291985,-1.4532230050673458,-0.5113360499793188,-0.016411385789096414,-0.06834847624734636,-0.05466332923349428
1628184901538228,623438.766069834,4848821.624850715,153.7205847256784,4.322577408886038,0.5660238447699952,0.11535243478193102,2.0875389812491885,-1.4464649499011424,-0.4998631946452728,-0.019155545020668522,-0.0695712871511906,-0.028375414312210884
1628184901638229,623439.2025609615,4848821.681410522,153.73203964282035,4.400399152641327,0.5668041038214788,0.11905532304548203,2.066714012315374,-1.440167632029258,-0.4803156944019479,0.017793757269272775,-0.06738054457131616,-0.007015206216465429
1628184901738230,623439.6459595617,4848821.739963038,153.74383941088408,4.464477732525558,0.6103958031649582,0.11415543495094724,2.044645070175608,-1.4346367382556031,-0.45935229686812146,0.015568854391737172,-0.05478228229789982,0.005373370942308907
1628184901838231,623440.0964102595,4848821.802979066,153.75625376516632,4.551502255207695,0.661860384632515,0.12353431188012592,2.0202965074017394,-1.4302473180369148,-0.43577694493548436,-0.010539680948662943,-0.048780882613075505,0.03327888834632613
1628184901938231,623440.5581919948,4848821.870646438,153.77214883971132,4.680228928140086,0.7150444893623173,0.1197044682943455,1.9695906405896002,-1.4277480106009146,-0.3852592140425723,0.004130558995599455,-0.05003593946126392,0.18921263802057067
1628184902038232,623441.0292574534,4848821.9454073645,153.78943365680652,4.707213730202533,0.7772465856064589,0.1312483208049124,1.9040403639109722,-1.4258825363496217,-0.31612304571549316,-0.04483803461931647,-0.05093079412473339,0.11332527137239672
1628184902138233,623441.4970393949,4848822.021246248,153.8052688938762,4.64259600504051,0.7526454086750513,0.16715716146914295,1.8867693101880276,-1.421554350158133,-0.2972608032258114,0.03055093024339486,-0.048672358359265325,-0.07602976687912637
1628184902238234,623441.9619610003,4848822.094933838,153.81804950342226,4.6635728038942945,0.753812555089484,0.16998232358836157,1.9236134785943728,-1.4149925969400239,-0.3346879179341732,0.010323544097177026,-0.039190606111880286,-0.16181934447758506
1628184902338235,623442.4342112336,4848822.169318596,153.82904185752636,4.770017194243036,0.7695138386989743,0.1333684224460181,1.9565363267921057,-1.4082049455317958,-0.3695894907674645,0.03852520079332827,-0.04919920955857116,-0.10187186775654368
1628184902438236,623442.9166906927,4848822.2472556345,153.8350941590498,4.85542878950294,0.81023264105657,0.04214225291781831,1.9741459757890945,-1.401244720630479,-0.3891872918718682,0.0224330891848271,-0.0617459202313096,-0.12288343783274085
1628184902538237,623443.4066716633,4848822.330346776,153.83117374444595,4.943095559263115,0.8880531947933427,0.015051105539312604,2.0002427556516658,-1.3935515994419032,-0.4164857492096419,0.008685441835853213,-0.03944055532083245,-0.11748528917625706
1628184902638237,623443.9093271606,4848822.4222471025,153.83994972792422,5.106738810558294,0.9848110358300945,0.19325459174125048,1.9984664938390235,-1.3900545321389646,-0.4135777504943897,-0.03204998547500519,-0.03270259767690718,0.07494499212069038
1628184902738238,623444.4279511753,4848822.520991087,153.87319512671093,5.239351471289912,1.014242124669118,0.32750094753867515,1.9482973713194114,-1.3892690547380175,-0.36010977579966547,-0.04105055890140797,-0.04845649462667388,0.18270542664951142
1628184902838239,623444.9547565482,4848822.620018909,153.910627069771,5.27988005474938,1.0042406352054825,0.28646925128833667,1.8973972147838494,-1.387710583681531,-0.3084092486919552,0.01202166323108946,-0.043850329500816396,0.12468753434084899
1628184902938240,623445.4834767006,4848822.717768059,153.93470257962815,5.28287045924103,0.9907447862592957,0.16617673611204858,1.8779478130469074,-1.3847010567784515,-0.2903195108830601,0.01629217772412446,-0.03322851652543824,-0.020993242249315584
1628184903038241,623446.0140140954,4848822.815661276,153.94449783352323,5.328321059188157,1.0214292445647393,0.08139957735632902,1.886412365545804,-1.3803483790225632,-0.30141232584268274,-0.05121555933059246,-0.031563311522616606,-0.09332754525210908
1628184903138242,623446.5516393076,4848822.918564722,153.94959066119418,5.417303196259293,1.0827673065171746,0.09165287098972039,1.9017192769695694,-1.3758201900856746,-0.31740415459164567,-0.035585447254526587,-0.028289118080698047,-0.055264036644087876
1628184903238242,623447.0997053297,4848823.027478517,153.96154166468062,5.524041655327552,1.1491762593324755,0.1561953174298239,1.8996225167420737,-1.3731245037203823,-0.3144146265856282,-0.04371214746186758,-0.020617563163029276,0.037847841935547605
1628184903338243,623447.6582372834,4848823.140639994,153.9810569958704,5.618785665402185,1.1734264718133616,0.19657860901388532,1.8871297843737966,-1.3720074317716846,-0.29912100407137493,-0.03063955065890641,-0.008336904825434699,0.11743192134647833
1628184903438244,623448.2260615916,4848823.253211848,154.00395412254315,5.706812284513961,1.1723536244115644,0.19114075860763693,1.864489633381433,-1.3720412928419676,-0.27662687677228465,0.02246842034356336,-0.014321537991714131,0.08736152719505516
1628184903538245,623448.8001969908,4848823.366303118,154.0235429180995,5.754106449346676,1.1885442139103592,0.1693663471788062,1.8533713429133272,-1.3716785592791347,-0.2663436083836207,0.04304141597354508,-0.0031047546701662176,0.07450723099285121
1628184903638246,623449.3798039254,4848823.48094792,154.03788590124336,5.821834182474485,1.1982162577792268,0.12807450523458128,1.8546160728124772,-1.3710516086889128,-0.2674427761801736,0.023151348246866946,-0.006963847019165053,0.0024679584427617835
1628184903738247,623449.9681678282,4848823.595938447,154.0505039932349,5.91574730934653,1.2112874009197583,0.1212224369905516,1.8545767386031604,-1.3710465366443,-0.2687592851323756,-0.012956059099118986,0.005396126982381461,0.017720128287767506
1628184903838247,623450.5648843346,4848823.712595474,154.063625268889,5.996392200137152,1.2335390873843015,0.1387902173064888,1.8550684400221324,-1.3714192861211985,-0.26948910560415856,-0.02464868589521187,-0.0005771390065668914,-0.0044837994592658295
1628184903938248,623451.1694239243,4848823.831847165,154.0782307086375,6.076529031847403,1.2574515236791197,0.1550373935800493,1.8565250762257182,-1.3715698865702186,-0.27026868806412174,0.0005116574392552937,0.0037358721387447313,-0.017751611928829944
1628184904038249,623451.7819868188,4848823.952963575,154.09470309628367,6.156711036225309,1.2631568237475723,0.16153849632900016,1.854382781721486,-1.3717441662534,-0.26766912214540134,0.0016401346547775942,0.007510641311548418,0.011283448926316662
1628184904138250,623452.4021224503,4848824.074120203,154.10970280717626,6.22625854986385,1.270767466404922,0.14432012504950156,1.8552076583678918,-1.3719561441574062,-0.26885079430369524,-0.0365410558123126,0.004051104062042777,-0.04345374092003454
1628184904238251,623453.0296691888,4848824.1952985255,154.1240689148265,6.301743322277728,1.2667654235072232,0.15278231168074183,1.857533793757731,-1.372171601460018,-0.2715701050265959,0.011889736218493681,0.004888828946528265,0.0009834707981395724
1628184904338252,623453.6645669885,4848824.315847861,154.1402983987735,6.370988444831039,1.267306384974938,0.1634644912458268,1.8534264451744997,-1.3728117730363851,-0.2692971687337479,0.03567087665155732,0.00271111425397107,0.028718584739622
1628184904438252,623454.3054855614,4848824.43635679,154.15815990507514,6.426254656777578,1.2647958771306838,0.16082320841118544,1.8429290116528494,-1.373895044009499,-0.2608369879154788,0.03304070128898322,0.006938010080953686,0.07230657305146702
1628184904538253,623454.9520829528,4848824.557154001,154.17556508473666,6.458255219299813,1.2942332868657114,0.14635033692085758,1.8253699980242792,-1.375658344958729,-0.2458365624914963,0.0002069427498937989,0.011393879625178132,0.053018693141346634
1628184904638254,623455.5978237601,4848824.681975625,154.19224544736474,6.399137206607954,1.3188797029045487,0.18473012860403015,1.818207161412796,-1.3767008661259283,-0.2370036919906182,0.026741310957096334,0.013683132540361275,0.10569143874738034
1628184904738255,623456.2400298094,4848824.807980293,154.2066875885891,6.447828240261183,1.3055536715702092,0.16045814821533227,1.8447846706427884,-1.3757598315236859,-0.26156648982300573,0.049730645448053334,0.002207434233638869,-0.19517462381220246
1628184904888256,623457.219244954,4848824.985817783,154.2257099280039,6.57217557193678,1.2639445517224934,0.08866638767908427,1.854884386391201,-1.3753748506900092,-0.2798703079731644,-0.02825067609621153,0.0035530012653570363,-0.08063480866085604
1628184904938257,623457.548594206,4848825.047935785,154.23089116085302,6.624714161979434,1.3305503173111566,0.09682338165078838,1.8470493369252543,-1.3756026971153439,-0.271228368764149,0.02236608112972199,-0.01688750609966829,-0.0237883047930224
1628184905038258,623458.2163485794,4848825.178317363,154.24812970534842,6.7421525800766435,1.3814151647815243,0.1741589682940882,1.8174546497384843,-1.3774072842157812,-0.23936270636120596,0.05752352457707697,0.00830798548153345,0.1603721517160027
1628184905138259,623458.8943711055,4848825.309852909,154.2797026511205,6.766819899689496,1.3529625821153577,0.22167099750223346,1.7414137877458638,-1.3815966282417729,-0.16099584774976441,0.0012014460596568718,0.010311873928141368,0.35389656618695425
1628184905238260,623459.5678601358,4848825.4351185225,154.30047219854595,6.671167111667402,1.3082952517759405,0.10395791884934669,1.6994350690132638,-1.3809850917007853,-0.1203783299548658,0.10184876614930419,-0.01754985186306607,-0.1037646878305563
1628184905338261,623460.2292400511,4848825.564531916,154.30425203796898,6.538838078329317,1.3924405416890426,0.010327994030820409,1.7265001956369919,-1.378348435901609,-0.14624244870592262,-0.1306440209110455,-0.0048329688977606705,-0.12053062731116658
1628184905438262,623460.88593903,4848825.700951773,154.29689771979665,6.571425901891485,1.419839980565243,-0.024569975153215684,1.7758199197518802,-1.3754176509337606,-0.19398998330706185,-0.0981358560687413,-0.009519105398793576,-0.30896408222528604
1628184905538263,623461.5467257685,4848825.838697653,154.28947145600665,6.637175248955127,1.399924956603351,0.02055473922851017,1.8157567634214764,-1.3707379989003092,-0.23216735092086926,-0.09351780825311032,-0.02948298408518901,-0.14431008918360214
1628184905638264,623462.2195163354,4848825.972995197,154.29776141037823,6.80110864038399,1.403888919612932,0.15497642585248927,1.8096654079894992,-1.3678128067221578,-0.22989747048600323,0.06734968814396522,-0.026944241079857236,0.1734352949705427
1628184905738264,623462.9050517036,4848826.12279171,154.32086796215052,6.865146873205982,1.694664183023544,0.15248877003864783,1.764244144211592,-1.3672700986870971,-0.18298121930929404,-0.09098748427107109,-0.029373756987512222,0.30841576680817806
1628184905838265,623463.5933810283,4848826.293114785,154.34171265010508,6.8705312241161876,1.6018864440304506,0.1371138754041158,1.72131940808017,-1.3675403994106632,-0.10666823955692642,0.16265101394142906,-0.002128644173307778,0.31051222416879876
1628184905938266,623464.2817229873,4848826.430203757,154.35381789584093,6.843931867390078,1.323692624657192,0.03912623873030786,1.6727502372897607,-1.3661800264862072,-0.07457009268599649,0.03755527275429674,-0.04922433358554373,0.18001980203239967
1628184906038267,623464.9670187524,4848826.556857565,154.35380850712352,6.8228750873780815,1.3390571105638225,-0.01559752256439152,1.677175290850191,-1.3600988066155724,-0.09320536386480638,0.0014798421072673904,-0.053937225810774515,-0.18142013126187054
1628184906138268,623465.6464800697,4848826.700097439,154.33861342875593,6.758244855231042,1.601387493732435,-0.10502927088985084,1.7215210834866335,-1.354609334732272,-0.14505105313222966,-0.24790802215790858,-0.022724427740992353,-0.43955082805884366
1628184906238268,623466.3286874361,4848826.862859956,154.32546399517446,6.882131624948627,1.662546589931671,-0.03169815563470346,1.7636919466724044,-1.3495847847035227,-0.18084145618342692,-0.045884889900936816,-0.03652882835856013,-0.18617676750831222
1628184906338269,623467.0253242331,4848827.026064381,154.32878436662654,7.024059685631812,1.6752335842693347,0.111499480372282,1.7726359592805592,-1.344161387764454,-0.1889341219316977,-0.04836653414621579,-0.044702168117245235,0.08269284824910944
1628184906438270,623467.7342486362,4848827.191620231,154.34758304274789,7.107220633210975,1.7082608604059173,0.15701181609893883,1.74470245524046,-1.3416161882409765,-0.15896351426393965,-0.026178379477696363,-0.027875398116780623,0.2152884899453699
1628184906538271,623468.4492565356,4848827.358808244,154.3641028262342,7.161524741040372,1.7418150706778879,0.0913731392286456,1.7121781976472346,-1.3396647165201752,-0.127244565603508,0.036767654723377056,-0.023094754516327354,0.1102033733333459
1628184906638272,623469.1652177796,4848827.531438374,154.372596350969,7.137179843004461,1.810631338019668,0.03653495455192744,1.693947091691418,-1.3374716508679962,-0.10860384701706599,-0.04127342439289372,-0.022789161310651018,0.05335213091036813
1628184906738273,623469.8804317592,4848827.709658456,154.37537238926328,7.134732333975107,1.8286263294661234,0.007727252014712083,1.6848568609231356,-1.334867750241694,-0.09827986451751052,-0.04119125811326736,-0.026521031904241477,0.1272242751988687
1628184906838273,623470.5965493784,4848827.88850615,154.3740757391124,7.178504506349808,1.8149441743220784,-0.041623038191984554,1.685499115714168,-1.3316613091181286,-0.09955535950994554,0.010806948897382141,-0.03468462054276322,-0.22441205754438362
1628184906938274,623471.3150909137,4848828.064682755,154.37022623908032,7.164122249082935,1.8190959024397717,0.0016745690743087405,1.6964368664498857,-1.327945195277034,-0.11430233408852514,-0.02323335216502996,-0.025781693876698746,0.09895085365326516
1628184907038275,623472.0363320874,4848828.246249536,154.37093485062866,7.216327943928892,1.8953543894626321,0.0006836271973308661,1.6927120044569361,-1.3252101598433714,-0.10904235432419015,-0.05248086592419635,-0.020970106508561986,0.009343116054388784
1628184907138276,623472.7625164709,4848828.431884137,154.37203424520797,7.274658233425533,1.9302757919801627,0.04445145969043006,1.6933871818154236,-1.323133666463066,-0.1099520207666068,-0.01529617743087208,-0.029341711036485234,-0.013771998497306148
1628184907238277,623473.4931161947,4848828.619467848,154.37685151848032,7.308461975801212,1.9352988870484562,0.0224784965221205,1.6837889842807983,-1.3215765756492102,-0.10021940190479024,0.038104065856979355,-0.021823717166710794,0.07399009197838338
1628184907338278,623474.2271176411,4848828.8093637405,154.37942787274062,7.3365242751055835,1.9659724280855342,0.0020978956401024595,1.6811287357957445,-1.3201568125081427,-0.09687182857972756,-0.02179755900035594,-0.012938364589990953,-0.021109022295245455
1628184907438279,623474.9638846471,4848829.00005697,154.37965449705905,7.359122278996486,1.9788084564043031,-0.00818630271574388,1.675838123260052,-1.3199111092637172,-0.09166793817214586,-0.0018846158092125547,0.005461045757133126,0.039466169281099125
1628184907538279,623475.7027717978,4848829.1933054635,154.3782664470952,7.379135515444575,2.014009771787973,-0.006183056274005172,1.678926186012808,-1.3202314126526433,-0.09244902612045174,-0.012652342484492185,0.006030671659747135,-0.04331277451924149
1628184907638280,623476.4432198566,4848829.387417426,154.37685794011676,7.398530969833373,1.9994693193515032,0.000938558550530405,1.6875157274419474,-1.3207751887691235,-0.09793332727375709,-0.01523976953694317,0.0023022384730829026,-0.0014881949464971426
1628184907738281,623477.1887425374,4848829.577476919,154.3754149710142,7.511780508938405,1.9106808640107693,-0.027420205234866483,1.693141526364206,-1.3215872899539496,-0.10347297984521,0.01096795465867717,0.006130117007456698,-0.03745090687060021
1628184907838282,623477.9459642768,4848829.75630607,154.37462914465684,7.597265054485661,1.866896129027214,-0.04388913033270052,1.674965817531624,-1.3231840965148038,-0.09700906517624149,0.03277221799371755,0.001844775417237466,0.035150648128384566
1628184907938283,623478.7076868636,4848829.939244542,154.3767895744557,7.581031941178445,1.9416833153043787,0.015948731685369987,1.6527231874023032,-1.324847789044045,-0.0758501480866589,-0.009067358576397504,0.015132796263474097,0.23253425923929097
1628184908038284,623479.4683331092,4848830.130741917,154.38014919130762,7.587037837799185,2.0237497573975096,0.002235688625442468,1.639674636113216,-1.3268167708044798,-0.0610810492590822,-0.03611442437253818,0.017333006350287672,-0.07260674886114618
1628184908138284,623480.2259035351,4848830.322909471,154.37407504478628,7.537579166144779,1.9477009029233467,-0.08096823848092997,1.6549419840965716,-1.3272915242690964,-0.07497792352437398,0.06257680788343802,-0.011472791052792038,-0.033787843503255845
1628184908238285,623480.9835265165,4848830.508561601,154.36395675007446,7.577470199954209,1.9026963996211463,-0.05347662925622242,1.6766289210452296,-1.326251428894055,-0.09820763191379912,0.10589713820444847,0.0013106153524820219,-0.09427955534474908
1628184908338286,623481.7467292328,4848830.69248696,154.35838994839762,7.648322522151519,1.9310825716335256,-0.008594606835342952,1.6911362726369872,-1.3264907539943462,-0.11581305726998951,0.02323203922429218,0.011271336667126323,-0.0425135372282195
1628184908438287,623482.516818756,4848830.8794319965,154.3593692754828,7.716404630336533,1.9690882460676324,0.01275954718749489,1.6865972506994802,-1.3281476449404506,-0.11304405626336438,-0.01598613311959331,0.01291131715705938,0.0410487156147473
1628184908538288,623483.2925387721,4848831.07004398,154.363960716661,7.764345618491568,1.9803427278712344,0.030726352345911527,1.6731271836145427,-1.3294358413559395,-0.09895094329482186,-0.011133480574931841,0.00836595066500061,0.0939084735113844
1628184908638289,623484.0725423543,4848831.260045156,154.36966772941673,7.8064131876978085,1.9566339763874663,0.0010848705972551975,1.6490812406002098,-1.330724327092962,-0.07488688733274601,-0.001854228445219694,0.011971653248561052,0.12141918199051063
1628184908738289,623484.8552458878,4848831.445588464,154.37060871967662,7.811763506660873,1.9152449864465486,-0.05419266509003414,1.6237209724587296,-1.3317877319730151,-0.05259852002353298,0.02549661177117855,0.008788244514636194,0.033735395863954916
1628184908838290,623485.6354848089,4848831.628684021,154.36514207653317,7.769651785134843,1.9093395582699868,-0.07148752042963932,1.6159066920990406,-1.3326232629996946,-0.047911191240666194,-0.0025943398436619877,0.012872896774615285,0.0058205363910769385
1628184908938291,623486.4137238736,4848831.812178158,154.35725344827054,7.76311033934643,1.90683538445737,-0.09613251254624963,1.6138841318443158,-1.3335777563830538,-0.04817341954695425,0.005155912537395525,0.008447548866260984,-0.007720498111166905
1628184909038293,623487.1924314509,4848831.994682104,154.34533107665877,7.7836424507050594,1.898929210137654,-0.11692305401662251,1.6163619616155003,-1.3341918928553167,-0.05354537696932076,0.01326777687809187,0.006700797181767664,-0.009692211811948072
1628184909138294,623487.9734457913,4848832.177990109,154.3361679068114,7.798903174544507,1.9269760057977463,-0.0786816956720297,1.6106953774481176,-1.335016360026464,-0.050130246266382336,-0.010205960548242307,0.011594271932735151,0.0308066278594136
1628184909238295,623488.7549838937,4848832.3645897955,154.33046817677717,7.787758578363233,1.9449842775660608,-0.06155053231864491,1.603855744885171,-1.336038627407228,-0.04298806002703662,-0.020332908206125346,0.015261174866738492,0.023502580147962963
1628184909338295,623489.5336602073,4848832.551954943,154.322913214861,7.7485143878265745,1.9395952514162125,-0.0802941595237207,1.608136375558103,-1.3365303477661519,-0.046229476198676796,0.008973613687605603,0.0023539698536946554,-0.050781139329977194
1628184909438296,623490.3099092429,4848832.739401801,154.3115016843614,7.749488116152625,1.954279880418046,-0.0930493131475213,1.6252090451768624,-1.3365061314345497,-0.06197683310100816,0.0008581044963080184,0.00542868848774045,-0.0762628906032168
1628184909538297,623491.0874635805,4848832.928292539,154.30126284179812,7.765439265246743,1.9634952662697776,-0.07683495905856069,1.6354846760137174,-1.3365297119239072,-0.06991016660135015,-0.010848455157200806,0.00544192598211352,-0.02022862269257625
1628184909638298,623491.866678985,4848833.11803629,154.2948565282255,7.7845020890103624,1.9703826770064492,-0.038821605721549156,1.6397381052044087,-1.3368238733923423,-0.07173473316209013,-0.024181191906537107,0.001936991187551527,-0.02330681272555856
