GPSTime,easting,northing,altitude,vel_east,vel_north,vel_up,roll,pitch,heading,angvel_z,angvel_y,angvel_x
1628184886518266,623425.5423358922,4848821.001065103,153.8522774607978,-0.0007490547842665253,0.0006796076110307553,-0.00045132016231723356,-0.010260319255352897,-0.019729407017131072,0.5777889820736111,0.00019610946384519714,-0.003005192489897175,-0.003739252572014723
1628184886621965,623425.542356438,4848821.001067123,153.85227901781514,7.91151664154597e-05,0.00014684325632755677,1.400261357870802e-05,-0.01025332496520659,-0.01979039040654735,0.5777628439202026,-0.001172443777352661,-0.007096065528455139,0.005173419712921752
1628184886725725,623425.5423428927,4848821.00106249,153.85227694145698,0.002071119658839289,-0.0002759942951944201,0.0011101225022097233,-0.01027054560489157,-0.019749304177483155,0.5777787151281084,0.0005675987411774252,-0.0022244217848299383,0.002667870424226285
1628184886829363,623425.5423477376,4848821.001066298,153.85227682190342,0.00045743036886782565,0.0003504994245762395,-0.0005549113937086852,-0.010261294499543116,-0.019765072933515274,0.5777931104922404,-0.005974880405529971,-0.014568344910944215,-0.00033070185321669345
1628184886933000,623425.5423509537,4848821.001073015,153.85227825185333,-0.0009013607000812377,0.0002838462177501543,-0.0010141227101243026,-0.010238323691754802,-0.019773214512909896,0.5778355395632898,0.005842557899388623,0.008360826012792427,-0.0015963209385682923
1628184887036760,623425.5423324361,4848821.001059912,153.85227736953314,-0.0004490449841544843,-0.0006538024751324542,3.652391725085363e-05,-0.01027529478814093,-0.019717494873258367,0.5778121401060904,0.0016128194337159962,4.826322480165196e-05,-0.004685716967181317
1628184887140459,623425.5423595702,4848821.001065755,153.85227661410318,-0.0011127409451403211,-0.0006566154960711184,0.001307958792708971,-0.010262450033234533,-0.01980190996877787,0.5778226020018378,-0.0014476132165059938,0.002596631573036146,0.0015798275374343553
1628184887244280,623425.542341315,4848821.001065295,153.8522771435278,-0.00044018631040553024,0.0004067702413897461,-1.989431657235636e-06,-0.010262072120560213,-0.019750709478748543,0.5778172054663921,0.00016552908251110006,0.0035182894969310627,-0.005777249243924169
1628184887347978,623425.5423566415,4848821.001082578,153.8522794849743,0.0007954126988803195,0.0008998918410323634,-0.0007657548590837793,-0.010207613606994246,-0.019796926819526675,0.5778234569187999,0.0006266242058803771,-0.0066073617823168215,0.008825103667811612
1628184887451677,623425.5423514755,4848821.001070426,153.85227844980204,0.0011055781284557056,-0.00033649957888589905,-2.4508292709447558e-05,-0.010244947803369556,-0.019775871686324355,0.5778444988957302,-5.847365775455377e-05,0.003152048483406145,0.0013834971279607902
1628184887555376,623425.542343439,4848821.00106765,153.8522772332368,0.00026961226935247155,-0.001049806903022525,0.0004148298920410879,-0.010258709583493371,-0.019754142760370526,0.5778319650854612,-0.001997220336775565,-0.00428209018800816,-0.003877898407489504
1628184887659197,623425.5423674263,4848821.001070391,153.85227684618047,-0.0002850862288134295,0.00015729909275853361,-0.00056274009085121,-0.010248016467341275,-0.01982793759543336,0.577837371510343,0.0015991143063337242,0.0025544085047595547,0.0015409278518842158
1628184887762895,623425.5423455539,4848821.001065681,153.85227727080644,-0.001007445188992111,0.0002943777023253403,-0.0005318673204612769,-0.010259470851497731,-0.01976112257988398,0.5778361694740001,-0.0009524574637968241,0.01083267721267558,-0.007777765114501346
1628184887866594,623425.5423603016,4848821.001075374,153.85227914911388,-0.0006411844368825997,-0.0006728857476456815,0.0004042057383905258,-0.010228314833398202,-0.019811111470930686,0.5778538788274856,-0.00010827956072420277,-0.0037511675486181302,0.0017742943317262665
1628184887970293,623425.5423546615,4848821.001066555,153.8522768388254,0.0007011969801009525,-0.00019235972453126682,0.0007146616960338943,-0.01026076568083808,-0.019797006339955323,0.5778785554059255,-0.0014133716989342812,0.006790085263957955,0.002336266198201947
1628184888073931,623425.5423359704,4848821.001066703,153.85227729733433,0.0004701096321219216,0.00045217560962841847,-0.0005960328141357872,-0.010258280268794674,-0.019735247634111483,0.5778499869540626,-0.002230040139063048,-0.004886806428859986,0.0049465531853278765
1628184888177630,623425.542362927,4848821.001063843,153.85227799402983,0.0004595458272965415,9.123813192310696e-05,-0.0008095482196193504,-0.010269000188116946,-0.019814287062523594,0.5778315674954606,-0.0014394014500836412,-0.003201379324845613,0.004490166834888982
1628184888281389,623425.5423392685,4848821.001075864,153.85227876093447,0.001292456293526579,-0.00011373880997648795,0.0002868569644377839,-0.010229617359706799,-0.019740437309336896,0.5778576461673518,0.001678784001939286,-0.00041882462831859685,-0.003473947181969365
1628184888385088,623425.5423465993,4848821.001074463,153.852277386045,-0.00015811214272070504,-0.00040720448922436885,0.00030877624288466304,-0.010236880517939752,-0.01976450376920217,0.5778564124064287,-5.763646106468331e-06,-0.004559144600299297,0.002632525344508391
1628184888488787,623425.5423527377,4848821.00106513,153.85227666345781,-0.0010198207101052316,-0.00027114012752477997,-0.0005825999232720696,-0.010262688427483986,-0.019782551552602723,0.5778393506860822,-0.0013173830355378475,0.011743941542265338,-0.012051882863291948
1628184888592425,623425.5423412083,4848821.001067715,153.85227815634502,-0.0004366174706756439,-5.3579499222500906e-05,-0.00024734542490896034,-0.01025412163220851,-0.01974963621171357,0.5778346152658527,0.0036552627173319506,-0.0065391186663001505,0.004369732119939252
1628184888696184,623425.5423674142,4848821.001068888,153.85227829585824,0.00014675214595978258,0.0003598496359206779,0.001408236423060809,-0.010250722955823164,-0.01982672821187462,0.5777975128463332,0.0018259442518132004,-0.0027258392417214474,0.003966089007261057
1628184888799822,623425.5423398896,4848821.001073234,153.85227802799545,0.0003037106543063184,0.0002455489599437145,9.864321844830407e-05,-0.01023750238198849,-0.019744550582051254,0.5777968441319343,-0.00669855958715559,-0.002666583775506914,-0.0033611547517421137
1628184888903521,623425.5423577885,4848821.001064733,153.85227729668884,0.00041618174539502755,0.00016494817521904483,-0.0008539828995705469,-0.01026544102613544,-0.019797614887213152,0.5778237929457313,-0.001917377760371254,-0.007136117590689051,0.005974797013945122
1628184889007219,623425.5423406082,4848821.001070031,153.85227780202015,-0.00011643497671555172,-0.00020843237725038798,-0.000464526916107041,-0.010249055137981728,-0.019741691533332092,0.5778474175554099,0.0013396069221850396,0.007897716724785508,-0.006425319968894688
1628184889110918,623425.5423411775,4848821.001082058,153.85227907267094,-0.0016510027476462495,-0.0012700322147183487,0.0013036169686813394,-0.010209809513925158,-0.019746943318630344,0.5778365168168187,-0.0019520869345988788,0.002953623527373344,-0.004273650557712687
1628184889214617,623425.5423649178,4848821.001060559,153.85227588596382,-0.0003904051663859049,-6.534691496295342e-05,-3.0205283030698745e-05,-0.010278394274455182,-0.019820623345210356,0.5778351793294819,0.0016961673870921276,0.007322721649175104,-4.420432947955246e-05
1628184889318316,623425.5423498097,4848821.00107275,153.8522779041803,-0.0010648257273867898,6.049201799054025e-06,-0.0003631940908629324,-0.010237799903313846,-0.019779528604762557,0.5778617360105331,-0.0011224013217541406,0.0005515268087072988,-0.0071117670441795105
1628184889422015,623425.5423537705,4848821.001073859,153.85227928371026,4.508020122566811e-05,0.00016474947950825998,7.437309925115292e-06,-0.010236362663488483,-0.01979190181600857,0.5778802459248096,-0.0007852961663943898,-0.006317632782128351,0.006610113328276629
1628184889525713,623425.5423577292,4848821.001066567,153.85227737616472,0.0021340259644925057,0.0005823494856371348,0.0011260249898664512,-0.010259218948682213,-0.01980564549696027,0.5778831019282956,0.0023800390954079992,-0.0014519881687062549,0.0031201798557230613
1628184889629412,623425.5423284462,4848821.001072652,153.8522774888803,0.00012706257498139537,-0.00010107068614951633,-0.0005281349486137341,-0.010238845305599759,-0.019714415332578342,0.5778893344762202,-0.0034581766110979364,-0.009547812158664428,0.0039027155845992876
1628184889733111,623425.5423546253,4848821.001081007,153.8522792592736,0.0005207042835592421,-0.0003263577024187927,-0.0006724426631829635,-0.01021529700257406,-0.019790195859026145,0.5778709909718235,-0.0020922854618798826,-0.0019299174889283958,-0.0007779627898739823
1628184889836810,623425.5423346718,4848821.001090763,153.85228042927758,-5.862775873919666e-05,-0.00023285105157558496,-3.764118313231518e-05,-0.010182007828463202,-0.01972877072545667,0.5778761185194242,-4.783056991150424e-05,0.004352681961744141,-0.003988297362808938
1628184889940569,623425.5423511041,4848821.001064702,153.85227682628081,-6.584600077006044e-05,-0.001204615610664811,0.0010908609387379265,-0.010268319801260542,-0.019785062741958504,0.5779114685823266,4.077452828692218e-05,0.003940370721203035,0.002714848121866928
1628184890044329,623425.5423404314,4848821.001049559,153.8522754491212,-0.0012100156914749624,-0.00043577380978970077,0.00010265259767831238,-0.010310494741229857,-0.0197518426440817,0.5778765590502696,-0.00146570393726096,0.010782852373072582,-0.0067581418172065815
1628184890148028,623425.542331938,4848821.001057097,153.85227688776132,0.00075671052207735,-0.0011183715361829953,-0.0007470689308283179,-0.010290328621515915,-0.019724526967826363,0.5778605148429906,-0.0036175184538244183,-0.011734783128534322,0.002543644929652129
1628184890251666,623425.5423634934,4848821.001085003,153.85227982942345,0.0006176558138098365,0.0007710329658448568,7.927694763810151e-05,-0.010203927535186983,-0.019817315430036748,0.577850854677783,0.00017000243966905132,0.0014957116807967493,0.0015478285573114208
1628184890355364,623425.5423269325,4848821.001075305,153.85227843191248,0.0013783404539058001,-0.0005564895125037229,1.567625130789839e-05,-0.010233550199072934,-0.01970745177148387,0.5778561277074,-0.002729180312686548,-0.0015226600119016892,0.0015654530209211466
1628184890459124,623425.5423545716,4848821.001049562,153.85227492846232,-0.0005949269779947042,-0.0003645448775260775,-0.0004549395546857239,-0.010314846612861396,-0.019795475604404766,0.5779272125712007,-0.006828620404075749,0.004872812315521894,-0.0002417240475060823
1628184890562884,623425.5423298394,4848821.00106133,153.85227659291286,-0.0008898694244671854,-0.0005355106727633344,-0.00021894648042772443,-0.0102759282512469,-0.019714981545447558,0.5778819637627177,-0.00397696559875269,0.009377482165838604,-0.008579670450987648
1628184890666583,623425.5423478223,4848821.00106001,153.85227726336612,-0.001396551331989407,0.00041013964135932926,0.00025147811695039654,-0.010281326859672913,-0.01977477202603398,0.5778587163521227,-0.0009429681096599681,-0.004218497553745763,0.0022066451208592524
1628184890770220,623425.5423627568,4848821.001083287,153.8522787492848,0.0002503990609512937,0.0006045322418230671,0.0005795022543745428,-0.010202896178246426,-0.019820798749503175,0.5778724053119096,0.001177868844846489,0.003082825001687057,-0.004466963601800901
1628184890873858,623425.5423287792,4848821.001096742,153.85228009435463,-0.0009239155502578682,0.0009294150955303289,-0.0006006504162610028,-0.01016398522172407,-0.019716738153430342,0.5778795802115441,0.005686676761599375,-0.007065841190553332,0.0065549379638461915
1628184890977557,623425.5423575847,4848821.001052897,153.8522767505929,0.00011067555952049788,0.0006387949252648358,-0.0004765480617319484,-0.010301480390324028,-0.019799147293493056,0.5778654828923875,-0.0007443282195458417,-0.0044240208467658535,0.006312237367922692
1628184891081256,623425.5423329867,4848821.001041272,153.85227528176424,0.0010997532412216427,0.0017228777985786794,0.0005291569088035928,-0.010342488041237777,-0.019726847675386686,0.577914026407349,-0.00015728737357129164,-0.0016889654754964427,0.0001727031594902532
1628184891184955,623425.5423498488,4848821.001057414,153.85227619677855,0.00017814525857762277,9.0262193048157e-06,0.0001350826541102352,-0.010286279982955992,-0.019777831246066857,0.5779007926061603,-0.0001378899618704955,-0.00712567426096195,-0.002245824273041558
1628184891288714,623425.5423619316,4848821.00107236,153.8522774574266,-0.0005728824919868833,-0.001499502124074598,-0.00035735530829402487,-0.010240650711265653,-0.01981155590833148,0.57785765911775,0.001461468630950739,0.006155298062509322,-0.007452521534222267
1628184891392413,623425.5423422216,4848821.001076446,153.85227883254552,-0.001064008570823655,-0.0003030751280251824,-0.00013194147529073497,-0.010227848348435747,-0.019753142198089057,0.5778843160114974,0.002082845178178079,0.0028103271919193685,-0.002996532743609172
1628184891496112,623425.5423507504,4848821.001050155,153.85227627999976,-0.0015188102052915114,0.0003520653254971066,0.0015134637702726931,-0.010310933197560738,-0.019778602428511108,0.577841097585307,-0.0010579099186633334,-0.001784063168286428,-6.372625242713228e-05
1628184891599810,623425.5423542889,4848821.001053939,153.85227573812847,4.901910665843958e-05,-6.51242098277821e-05,0.0001456431002912471,-0.010292908005486672,-0.01979067185565072,0.5778373911948215,0.002373856190090515,0.006314731406050837,-0.004348010841064461
1628184891703570,623425.5423448626,4848821.001065304,153.85227767364512,0.0009870059523138818,-0.0005133814791247546,-0.00040175162445452866,-0.010262665389583918,-0.01976307364288527,0.5778569999642167,0.0001203343401986407,-0.005878142633391779,0.004796677287828471
1628184891807391,623425.5423718012,4848821.001076658,153.85227932000402,0.0002761918224673537,-3.2676555814260594e-05,-0.0005408160455010894,-0.010229196484155295,-0.019840349014813248,0.5778344262433169,0.0001461117447860822,-0.002637563046244612,0.0023248714756361156
1628184891911151,623425.5423397856,4848821.001066258,153.85227774416887,0.0024870607383348804,0.0012279861539700497,0.0008587356267615105,-0.010260537278385178,-0.0197415254988689,0.5778401478720405,0.001809546925147519,-0.0008163460336738552,-0.0009711951812957319
1628184892014789,623425.5423538084,4848821.001052586,153.852275794617,0.00010514402216199279,-0.00041881432918470786,-0.00012796688199017794,-0.010298880205754679,-0.019784706265310318,0.5778483834148543,-0.0006331054622013481,-0.007923592037859735,0.0007535724754143629
1628184892118548,623425.5423603638,4848821.0010671215,153.85227723460633,-0.0009649819741175459,-0.0020463122484894146,-0.0007689776533018093,-0.010257044259473247,-0.019806980260433645,0.5778568081276245,0.0003848746233697856,0.005225188118506469,-0.003999308831981154
1628184892222247,623425.5423351512,4848821.001065374,153.85227829276192,-0.0003644671357481337,-0.00040368622771922054,-0.00021807321882323804,-0.010264756764793216,-0.019729303029019124,0.5778292341154281,-0.0013764917477683577,0.0011058651093027202,-0.003422266174833014
1628184892325885,623425.5423678651,4848821.0010606805,153.8522770829884,-0.0006796841512222366,0.003202758950613973,0.0008452123511595047,-0.010276480745312918,-0.01983196834759659,0.5778428633220702,-0.0035584792846002685,0.0027641977264793232,-0.0012719870668053488
1628184892429584,623425.542334229,4848821.001062742,153.85227640587848,-0.0006136231350648407,-0.0010795168468064466,-0.0003819692505498492,-0.01026298810820039,-0.019729982309887532,0.5778486193577079,0.0031532537206480585,0.005680727524809986,-0.0017879971321102825
1628184892533282,623425.5423426833,4848821.001063997,153.85227803925528,0.0011326338714954024,-0.0015684078387170177,-0.0004951519290215546,-0.010267861458905354,-0.0197525984462025,0.5778166338950055,-0.00017984708002304235,-0.013549047431515936,0.011587465192837815
1628184892636981,623425.5423582913,4848821.001079991,153.852279389959,0.00033967905957168446,0.00019374960139047806,1.0439910181609545e-05,-0.010221799607917656,-0.019799077262245633,0.5778501622803219,-0.0004299267843902847,0.003662155010739963,-0.0003414213993717583
1628184892740680,623425.542334308,4848821.0010662945,153.8522773228987,0.001001475835186805,0.0016314724384665922,0.0008488251199633746,-0.010257962589856945,-0.01972799575388332,0.5778528253711612,0.0035942488861708095,-0.000875606937602963,-0.0036057751699503406
1628184892844440,623425.5423483471,4848821.001069931,153.85227816086072,-8.680241040632608e-05,-0.0013950991035774688,0.0002680734499957603,-0.010241497143645065,-0.019766678328941703,0.5778287569799556,-0.0014957975208569054,0.004917705368597437,0.00048246502240536257
1628184892948077,623425.542340926,4848821.001076286,153.85227855405589,0.0003767939828245369,-0.000907925523821997,-3.282425923456533e-05,-0.010228983345429333,-0.019749839052679723,0.5778508886155548,0.0015683841861739017,0.004531479670672644,-0.0029404908283251936
1628184893051776,623425.5423653048,4848821.001058041,153.85227689726457,0.00018126101758103791,0.0010593432780072007,0.0001555570852563927,-0.0102939915226224,-0.019826211224883355,0.5778767871073495,0.000608588870431335,-0.004186697496462055,0.0027549983751818147
1628184893155536,623425.5423336254,4848821.001075642,153.85227867444922,0.0015859164098151464,0.00281738276937345,3.00557801920723e-05,-0.010225314083963844,-0.019730276341647045,0.5778806399213144,0.0008828415106600604,0.0005831839177122325,0.0005783972989809525
1628184893259174,623425.5423318846,4848821.0010801945,153.8522789294994,7.048235435581262e-05,-0.0015733790134687614,-0.0003995331046880538,-0.010213763390298034,-0.01972108691801415,0.5778680814093694,-0.006390150015469849,-0.007638060371568466,0.004422171963869245
1628184893362934,623425.5423335476,4848821.001090406,153.85227928629067,4.331147714022195e-05,-0.0018702240596830363,0.0006710393084337591,-0.010187714665530216,-0.019726066669319985,0.5778875795356645,0.003195924484925706,0.0019698856672857312,0.0009165999797407603
1628184893466632,623425.5423159687,4848821.001062268,153.8522774998436,0.0007639399457937096,0.0014139142408911916,0.0003770956370671033,-0.010281235275694052,-0.019673954715389505,0.5779535387653425,-0.0014470908626750482,0.0014067469327270806,-0.003160767996365678
1628184893570270,623425.5423072448,4848821.001086219,153.85227966520003,-0.00047164102998927226,0.0018699783692822784,-3.552938866787041e-05,-0.010189774166756973,-0.01965033519367192,0.5779790358189412,0.0011487917868375937,0.0018668000476364124,0.0027548440829788332
1628184893673969,623425.5423197616,4848821.001116445,153.85228271237972,0.0005455432865466975,-0.00033189623411912343,0.0013813479939969804,-0.010101862826332002,-0.019684533247172717,0.5779092966631694,0.0044881007464090735,0.005682276607173262,-0.004507567215120548
1628184893777728,623425.5423419715,4848821.001044042,153.85227606230944,-0.0009672177442046326,-0.0007046694475576099,-0.000476577664793533,-0.010333934725058301,-0.019756507629018108,0.5779196819115036,-0.002033680721380939,-0.007442547218032172,0.001734133164013427
1628184893881366,623425.5423132516,4848821.001056063,153.85227609009456,0.0012585245868641762,0.004483382767945847,-0.0003741167542405725,-0.01030171577947096,-0.01966627158267918,0.5779437657963296,-0.001581454489812561,-0.00034114845477207925,0.0005508760752450236
1628184893985187,623425.5423210991,4848821.001088859,153.8522803151519,-0.0004084450711866903,0.0013087258126017682,-4.148316784115727e-05,-0.010180526324793463,-0.01968791952425778,0.5779273300328022,0.004653352364618212,0.0014104787696968238,-0.0002923945734697676
1628184894088886,623425.5423528093,4848821.00109729,153.85228092491835,0.0003333479559249724,-0.0013268442214147253,-0.0001619609414667582,-0.01016349200627055,-0.019794731127365434,0.5779571280222675,-0.004473440530840443,-0.0030990113269994493,0.0030522441495958543
1628184894192584,623425.542318616,4848821.001070892,153.85227695066536,-0.0008942218837450636,-0.0011695594149067662,0.00047276377999359485,-0.010252067226871739,-0.01968035002703322,0.5779598554111132,-0.001979555934068196,0.005574224485242146,-0.003391279440180555
1628184894296283,623425.5423185363,4848821.001064443,153.8522769700551,-0.0014412490102064396,0.0044608876426429495,-0.0006016400236270689,-0.010273561805537392,-0.019688180652977113,0.5779630128986518,0.0015488928973561487,0.001363230529553038,-0.0018181642051375406
1628184894399982,623425.5423439905,4848821.001105695,153.85228218120506,-0.00032958980619725927,0.00016138724964521434,1.0037185451668224e-06,-0.010127714763133367,-0.019764962340260022,0.5779801231788132,0.001208686413196524,0.003088962830665392,0.0007654495816454966
1628184894503803,623425.5423251007,4848821.001084432,153.85227936142212,-0.0009630760613833364,-0.0015327961730015574,0.00046762648302209233,-0.01020311629487641,-0.01971145389238567,0.5779917769276501,0.004546365149250536,0.003109966238352625,-0.007148569715916744
1628184894607502,623425.5423333709,4848821.001083383,153.85227869531207,0.00031643303490489383,-0.0011949711219857281,0.00020725317339691048,-0.010214753259072408,-0.019735242134925245,0.577955734533429,0.001226792664175215,-0.004086571228410907,0.009411697152443433
1628184894711200,623425.5423281868,4848821.001084611,153.85227879069458,-0.0024191696241688335,0.005683723722367587,-0.001725271132303108,-0.010209749390164554,-0.019722327119498388,0.5780011383015022,-0.0017703491639465556,-0.0006040757577121809,0.0035893053706536012
1628184894814960,623425.5423432289,4848821.001093372,153.85228082954927,0.00045313478625004473,-1.6690964935911235e-05,-7.365635222086844e-05,-0.010170028099126099,-0.019772405116490536,0.5780079733855186,-0.00363837586184253,-0.0038041667429255894,0.0044110357697816766
1628184894918598,623425.5423142826,4848821.00109723,153.85228067575142,-0.0008575279682005209,-0.0022640136339654635,0.0004338128587767768,-0.010164814043484282,-0.01967299343292372,0.577990991543006,0.001458016780953416,0.00451637298360169,-0.0003793836015047857
1628184895022236,623425.5423185077,4848821.001056674,153.8522753196841,0.00016361845830719954,-0.0008527684742412097,0.0003301807870199121,-0.010300946859782724,-0.019700069802774802,0.5780315954340399,0.001463684731904364,0.002007972620137945,-0.004031390748992941
1628184895125995,623425.5423744716,4848821.001075403,153.85227858500517,1.375228192333506e-05,0.009047723725469406,0.00014537568553022628,-0.010235573697308837,-0.019870457468490338,0.5780425189822113,0.0010569546560932304,0.0017041887200899785,-0.0010283701208704205
1628184895229694,623425.542348206,4848821.001303689,153.85223450317108,2.851065543444265e-05,0.0055330456384397805,-0.0012576591255007224,-0.010180316193094457,-0.019695299843500852,0.5780535571583919,0.0010919021533367134,0.0013463366549242666,-0.0008723856370172211
1628184895333332,623425.5423122955,4848821.002013588,153.85199967829803,-0.002084725575000994,0.006640077791808419,-0.002543252318025523,-0.010158318811467523,-0.019787959440466997,0.5780410944833824,-0.0015784439939608237,-0.001592537243723413,0.0033241159131654303
1628184895436969,623425.5422236663,4848821.002569054,153.8517443095972,0.0001234175689534048,0.006000356975846472,-0.0018890007302637163,-0.01027289932016599,-0.01992034992765096,0.5780214178591475,-0.0020321605490981206,-0.002399165092209351,0.0034775490280831737
1628184895540668,623425.5423243466,4848821.003387769,153.8515208056943,0.002265175877826192,0.009530904092091215,-0.0016640872636154373,-0.01024970671956722,-0.019950607818800068,0.5780308730626826,-0.003965780105011338,-0.0010674061791210337,-0.0006082676423255024
1628184895644367,623425.5431161779,4848821.004557118,153.85111000523912,0.01645069405335671,0.01448326587606655,-0.006572104059162138,-0.010158828796076656,-0.02020004390380506,0.5780382578613096,0.0018136703541737772,0.006407776312192725,-0.006982684886847211
1628184895748005,623425.5464135755,4848821.006233544,153.85021829196685,0.04555895963100235,0.02113132745901857,-0.009754766876080768,-0.010079082783833314,-0.02085610804627154,0.5779303877463825,0.002855318669690235,0.0036849920835911845,-0.006258071225145286
1628184895851826,623425.5532404406,4848821.008767838,153.84925303614392,0.0842869847350011,0.027773582871670373,-0.008745296404482687,-0.00981819566389993,-0.021462303112057754,0.5777330410872119,0.002305914012401681,0.007833566338602983,-0.006991636215072945
1628184895955524,623425.5647840357,4848821.012347655,153.84851885820564,0.13556121548939204,0.03843247430972528,-0.004907574931051244,-0.00959124268848787,-0.022336886422962728,0.5775501393418048,-0.00441414050360491,-0.0006472032420641471,5.424049868372014e-05
1628184896059223,623425.5817741428,4848821.017378981,153.84863959113486,0.1827145771041368,0.05704572341051788,0.008666286169414889,-0.009424325721014017,-0.022856077662750673,0.5774518109881265,-0.004404272683916506,-0.0017899924146798619,0.0025744800940253037
1628184896162922,623425.6011423827,4848821.024047624,153.8502689030762,0.19425483721693518,0.06924017337745847,0.01609425553717263,-0.008792670753043703,-0.02126019456838743,0.5776006076995198,-0.007008599497625805,-0.030087098618763634,0.008179658952698319
1628184896266743,623425.6214988534,4848821.031256392,153.85127882875082,0.20369534276361032,0.06354958774228592,0.0011386164845845672,-0.00800418159537186,-0.020403866314393098,0.5779805714200978,-0.005372172148232688,-0.007009387783129036,-0.004065242176905971
1628184896370441,623425.6436342989,4848821.037582498,153.85114652804063,0.22292720327915105,0.05633924485149647,0.0006343651240744387,-0.007846682775741945,-0.02065566969427401,0.5784936903791706,-0.0069375809784249795,0.002721559091406694,0.002853943842720541
1628184896474140,623425.667151212,4848821.043398184,153.85144471142993,0.2339267875570478,0.055713419315887885,0.00318451919310806,-0.007787529871715946,-0.020332606497587103,0.5792332916728854,-0.011684582415646717,-0.015745365877249597,0.009409873274074311
1628184896577839,623425.6921111364,4848821.048772234,153.85172451571114,0.2495666494071985,0.05608119894294895,0.001989679453574514,-0.008110921480510888,-0.020333828769181248,0.5805096814717601,-0.01236287742823937,0.016666501460374003,0.00046772888941436973
1628184896681538,623425.7189319466,4848821.054267738,153.8521691189979,0.26796186974964803,0.05361433679576919,0.0066609539617313845,-0.008535564167690933,-0.020208953273134957,0.5818028704651727,-0.013637253658740875,0.00229519242427332,0.0024327835527720907
1628184896785236,623425.7471858826,4848821.060268436,153.85275002669118,0.2796253561213531,0.05891163382289511,0.004590206977920713,-0.008620416084726275,-0.01975914546403686,0.5830859343092876,-0.013119503193658498,0.0012418068633670292,0.001529667491369174
1628184896888935,623425.777092688,4848821.067053651,153.8529695076732,0.3008787617085448,0.07191342356408242,-0.00018436435356546793,-0.00846447895299269,-0.019637724714804357,0.5852342635352442,-0.027294263436167202,0.005643363041459989,-0.0033576934291806608
1628184896992756,623425.8103235884,4848821.074548438,153.85285605212403,0.3434247229278092,0.07443197404345887,-0.003679868750513354,-0.008196837907371026,-0.01996276670691567,0.5881730632021559,-0.03138828388642371,0.0034037928891337624,-0.0027737592723853805
1628184897096455,623425.8494462289,4848821.082137419,153.85231149534363,0.41359098123295635,0.0693671890754031,-0.0061815024270220785,-0.008080694620761882,-0.020759531026736555,0.5916211331279556,-0.0388035173288787,0.0010565543556045867,0.0024125239820214756
1628184897200153,623425.8976286232,4848821.089951361,153.85186007111767,0.5158880189214471,0.07871828836049216,-0.00025247064552433654,-0.008443633313753031,-0.021934712925538634,0.5959849459299101,-0.04773201991885314,0.005425192600949926,-0.0028690494808729992
1628184897303852,623425.9577621653,4848821.09874339,153.85224963190984,0.6452128992283389,0.09959660282284782,0.007517210536245008,-0.008942015215632221,-0.02282343821971654,0.6018655846299186,-0.06341107182804213,0.013530254947187405,-0.002446292406020549
1628184897407612,623426.0319487511,4848821.109434887,153.85333759450077,0.7870105307908132,0.12173915980807941,0.011251410427523456,-0.009590134533574345,-0.023164108564685995,0.6096015138982049,-0.08021902913751638,0.0033695679222662625,0.0015716534601191478
1628184897511372,623426.1206936411,4848821.123546339,153.85444733712933,0.9303292783006816,0.14095213527097253,0.010037207934077273,-0.00938403686760245,-0.022994669523463275,0.6193072841597451,-0.10281629518165608,-0.005223560197496437,-0.007179297657649516
1628184897615070,623426.2236706853,4848821.1400590325,153.85549783182842,1.0664501420386636,0.1525509654105712,0.012545873669676223,-0.008494430522293763,-0.022556122169751527,0.6309571176378184,-0.12179848904795662,-0.005622843217885103,-0.0015959179469417252
1628184897718769,623426.340758748,4848821.154528374,153.85720324019755,1.1992161203908929,0.1299746541204974,0.01799217321086998,-0.008543088353908077,-0.021972892651270858,0.6436992542132721,-0.12471898358307122,-0.004953170541057585,0.020014107983315908
1628184897822529,623426.4714395539,4848821.164615965,153.85917016618146,1.3251637246755419,0.09508860756953907,0.01800044641582401,-0.010508191775361749,-0.021712193026352154,0.6578626326826361,-0.14962782640765357,0.0171168073164543,0.023745128616526917
1628184897926289,623426.6149686978,4848821.172682144,153.86082296045066,1.4507940799230885,0.06666119784028221,0.015308408044556389,-0.013092502201247488,-0.021754927451839077,0.6743902663300518,-0.17140305888374477,0.01490016567007532,0.01655580538707799
1628184898030049,623426.7719329164,4848821.18186036,153.86177984316598,1.5833367585764146,0.09871620983938843,0.006105409613141197,-0.014589197936422198,-0.022260855732996535,0.6925822722040665,-0.1807390793873499,0.009271253957526364,0.0004818048553380886
1628184898133747,623426.9429691037,4848821.194199619,153.8624495605799,1.7260874552890737,0.13510290493897564,0.008165696756921428,-0.01355727093828307,-0.022280147508759566,0.7115971611610884,-0.18462024442984712,-0.01840864744329453,-0.01867152643964918
1628184898237446,623427.1288110543,4848821.205996151,153.86382021756197,1.8723478097559574,0.08595461072369373,0.017024668238273553,-0.011581761347394913,-0.021446799919031517,0.730523836378463,-0.18174389317175071,-0.011690454599167927,0.003931902391075971
1628184898341206,623427.3292163586,4848821.21049993,153.86618099846288,2.004995501265806,-0.01720587944486371,0.02565695987598638,-0.012140254177917953,-0.01997183229633724,0.7492289565789043,-0.1807659240108545,0.014254570683901839,0.0010235037645174672
1628184898444844,623427.5425040649,4848821.208367004,153.8681508279105,2.124368838903844,-0.03389459631044879,0.010855940446757528,-0.014367222070418665,-0.018926542940800966,0.7680052243254752,-0.17864344739624918,0.017371195775847104,0.021331091026992998
1628184898548481,623427.768073996,4848821.203284598,153.86842108327204,2.2363610979486404,-0.029673622860974636,-0.004513695684958817,-0.016925560146215792,-0.01890455383360973,0.7859015826807983,-0.1663536907073107,0.012463484723293193,0.008022122905431658
1628184898652058,623428.0051597308,4848821.197758604,153.867860580992,2.3415574423786842,-0.055639827267404504,-0.0016339415478813998,-0.018274258776856768,-0.02034392822651975,0.8020727473824654,-0.147291728730202,0.013644670729748743,-0.014095969590013068
1628184898755574,623428.2539887858,4848821.191570161,153.86863956554134,2.4668592443945943,-0.08515119300237398,0.01675242636495245,-0.019130063614586832,-0.021437096122134586,0.8165751722181644,-0.13050571981432588,0.002479564799964826,0.004898587083482952
1628184898859089,623428.5163089086,4848821.185654264,153.87010834226115,2.60225347147168,-0.0451432107981244,0.013582231423534416,-0.018530228301550062,-0.02121934711089187,0.8287071840526343,-0.10410675681582804,-0.02467931342498148,0.010864124680261501
1628184898962544,623428.7909838564,4848821.177121255,153.87136549863914,2.716457533159362,-0.09428516012345525,0.011144507492712522,-0.01833110468699701,-0.019815914270363298,0.8380203646426706,-0.07861402600461544,-0.010323062471563501,0.035721503333099335
1628184899066121,623429.0770399779,4848821.164962391,153.872228759441,2.817129222747816,-0.1649549583112513,0.006241777063120027,-0.018646834645835508,-0.018650393063060676,0.8454044036206734,-0.06457830690751286,0.002352196791550719,-0.004603994676488751
1628184899169636,623429.3726410954,4848821.152735895,153.87257484915335,2.9033226421496745,-0.10726304920573168,0.004714334221872056,-0.018454778516457743,-0.018122194986930625,0.851524374301439,-0.04465590810303536,0.006681341432081436,0.021599504081215744
1628184899273152,623429.678126215,4848821.140424535,153.87356961524358,3.0012236234229226,-0.09931437789319439,0.0135712274216842,-0.01866502861311372,-0.018075237595273352,0.8553639074420444,-0.021683398940593488,-0.004423696464443846,0.022994187579750677
1628184899376668,623429.9930038719,4848821.127145602,153.87560446782658,3.0827528586901374,-0.1401031935923736,0.025053449493586212,-0.019346467965227352,-0.017657983501752548,0.8558107011528839,0.011106445572858196,0.00399855539128573,0.003165440200161252
1628184899480305,623430.3170804429,4848821.11705945,153.87831452062832,3.169233761078905,-0.08315869620196992,0.027173342495898402,-0.01912367445471981,-0.01780078245750484,0.8535832424724168,0.02948001215488763,-0.019556339635667466,-0.008644027570420784
1628184899583943,623430.650295459,4848821.113431301,153.88157119489873,3.2623080002454543,0.00938183663161564,0.0292533238131411,-0.016789135018911893,-0.01696711829286549,0.8489691828284562,0.05785131412541234,-0.05016800931648314,0.0019717379775977435
1628184899687581,623430.9922219948,4848821.114551352,153.88451374109783,3.3407064042532078,0.03366253535937785,0.015088505581894153,-0.013127927105384272,-0.015501218590452032,0.8424438491361165,0.06249545124375696,-0.0344349416500499,0.012988198153311897
1628184899791279,623431.3423281468,4848821.119703591,153.88547918901168,3.411065204538397,0.013728248359597819,0.012304930952795175,-0.008956290107869374,-0.014528165347335708,0.8354634097348108,0.07123890004537235,-0.03641057592368183,-0.03085037861983184
1628184899895162,623431.6997304547,4848821.127234709,153.8862481396524,3.4651925869345264,0.05581981309608121,0.008671391602930525,-0.004592625295523393,-0.014564341972865187,0.8283002053030923,0.06175579773752606,-0.007094195099139625,-0.019121341075886148
1628184899999043,623432.063991077,4848821.135196373,153.88789907783337,3.5253824234286464,0.0937481806137852,0.021459351335157695,-0.0018349171263575847,-0.015841444812647605,0.8210650297160665,0.06550051536033753,0.0073862106342337495,-0.012157511974465924
1628184900102925,623432.434668543,4848821.14290587,153.8910554652306,3.594288128141934,0.09296657645296325,0.039092846412221896,0.0005318094410744914,-0.016688549451316148,0.8132326678149326,0.08007465260067634,-0.015977620959825137,-0.050137863155509596
1628184900206929,623432.81267774,4848821.1510010585,153.89634215105445,3.6556979237929057,0.0911032096741543,0.05391396762273663,0.0011808367281893686,-0.019156467010406394,0.8057084370535028,0.06895214058924827,-0.008760923707510342,-0.018358451463851847
1628184900310872,623433.1965559118,4848821.163887536,153.90143849798915,3.7076927771206405,0.0862262883790294,0.04418765022256314,0.002234444468204681,-0.02164581080601282,0.79843652909782,0.07127116221581097,-0.011708052310772522,0.018866332073456178
1628184900414876,623433.5872014887,4848821.181574616,153.90451719494413,3.775522702670943,0.18643255703797587,0.01638241255497791,0.003954049543994154,-0.02546173279446614,0.7904253501877604,0.07789007167180219,0.03347270670582011,-0.02615787236007915
1628184900518819,623433.9843092448,4848821.203610635,153.90610208760708,3.8467154377734856,0.2534380832753913,0.017657273322309958,0.006629816975116186,-0.028040313391582694,0.7820919023034637,0.07686799094023938,0.007291604162447373,-0.045511198354408026
1628184900622701,623434.3879584714,4848821.227971597,153.90976830171024,3.909381009247863,0.269451023581724,0.04401367107777572,0.007893192100442472,-0.028496314791183436,0.7742427562768668,0.07015222829735017,-0.03076818602321153,-0.005567476187466416
1628184900726643,623434.7969999771,4848821.257020049,153.91482767673517,3.9569282558898355,0.2752702905506679,0.06255174132644616,0.010112575945653492,-0.028448392473775515,0.7667611332035577,0.0709451971301775,-0.04111556173032324,-0.04401841326304443
1628184900830526,623435.2103978004,4848821.2910972275,153.9229903399755,3.999691352234886,0.3089425654261308,0.09123229183996187,0.013221912587085142,-0.028034396591290374,0.7590390775457694,0.06960568209056023,-0.02531877222871141,-0.020278664868141366
1628184900934285,623435.6278010589,4848821.32773993,153.9335306075889,4.0444173253809845,0.37133428569169663,0.10584892725711198,0.016240319675713263,-0.028261678833628286,0.7507333251045982,0.08434847449115672,0.009393720019036777,-0.023204261459414604
1628184901037984,623436.0489930224,4848821.362908649,153.9445576324023,4.074264886588038,0.37649275069119625,0.09743917965300132,0.01583830632594543,-0.027878552959477915,0.7428935879436027,0.0741680637778655,0.008197254093578191,-4.821622520800292e-05
1628184901141622,623436.4741272208,4848821.399044388,153.9529689827284,4.117998948606381,0.3360902440937008,0.0705508968476666,0.014911242589655609,-0.029747955915783518,0.7351691628156697,0.07419504696755638,0.022422739032329133,0.015616804179183262
1628184901245198,623436.9036839913,4848821.439158817,153.9601581781521,4.156061290347089,0.40165730855680387,0.07469428873112532,0.01448390668183186,-0.032562930034785366,0.7276130174103571,0.07375555592125052,0.017287682282427382,-0.00995449077323408
1628184901348653,623437.3370157633,4848821.485424437,153.96829138128913,4.194562670595176,0.5132430061678488,0.08345624997728249,0.015317044400561372,-0.0362602672593165,0.7205884977734093,0.057481915881382,0.03434478064616624,-0.05524546636008167
1628184901452230,623437.7766103394,4848821.538049334,153.9782803314256,4.265568765115414,0.5317107461915912,0.10877716599020273,0.017386680249447558,-0.039548523134938264,0.7138319110540968,0.06053056349092817,0.010155276640409558,-0.03302292928095311
1628184901555745,623438.2227726465,4848821.59332565,153.99014803088508,4.345293194915534,0.4755605162574919,0.11923741359264828,0.01886232761111052,-0.041554847205623115,0.7069343624589695,0.07096081694081974,-0.011826468950621335,-0.0016565646243077664
1628184901659261,623438.676600083,4848821.647100657,154.00261450766564,4.4152203290287915,0.5634292544302368,0.12053466159095391,0.01726930461862203,-0.04214113937656078,0.6999911817780021,0.06482363185278822,0.0008873128533260922,-0.005167422283680464
1628184901762715,623439.1370888539,4848821.704397722,154.01463099151556,4.4813086892052265,0.6099809464344285,0.11206151074437448,0.016276677709064328,-0.04195474416562514,0.6938790293143228,0.05274884132598695,-0.005179534683159407,0.000935697863741315
1628184901866292,623439.6059844168,4848821.767518892,154.027192262294,4.595898813142437,0.5835480127841158,0.13082711434069208,0.01600121910448472,-0.04005079183733661,0.6884149864395673,0.053524281301206025,-0.0008243760420682122,-0.021217101839595503
1628184901969930,623440.0868592308,4848821.8359127445,154.03982198916702,4.716781542473628,0.7041039533214495,0.11737314510591901,0.015375199848277591,-0.03263847797778699,0.6831067175237255,0.04742833034476723,-0.09348794458636928,0.03301535622948731
1628184902073568,623440.5733576858,4848821.912570607,154.05310752712307,4.683815136284322,0.7739112477308047,0.144701852857045,0.01906967079845652,-0.02478134246092756,0.6778345047582072,0.04875157154670516,-0.05877852527614112,0.022012419039689073
1628184902177205,623441.0571074651,4848821.986699514,154.0700766814085,4.63993708280711,0.7144338512655675,0.1755163571272137,0.019022149633790914,-0.027659042222435808,0.6727904189909729,0.04429529489527417,0.07550998619793134,-0.0574590026999989
1628184902280904,623441.5438716395,4848822.060687222,154.0879023132963,4.719829388649148,0.6396243330075095,0.1609835124595274,0.019346875391553036,-0.03644405910285193,0.6682522523189958,0.041160384607403476,-0.024902486561233957,0.05613542584132432
1628184902384786,623442.0415556877,4848822.135794461,154.10194168682028,4.822598221472753,0.759002061187345,0.10066963782562455,0.017598068598758978,-0.04300947861130414,0.6632759342209957,0.054120716071510644,0.054128072224958135,-0.038546720890502456
1628184902488546,623442.5482642476,4848822.214860385,154.10659932786768,4.890637594334831,0.8420368285186914,0.0009855836152441455,0.016080125001349112,-0.049699356145734994,0.657480345588387,0.0531448066744873,0.12278737265772204,-0.0999308503308448
1628184902592489,623443.065199426,4848822.303108475,154.10897621715668,5.029127228767944,0.9241166030643574,0.09954538902108573,0.01629439475376146,-0.05529223282165227,0.6531824870261747,0.030838915869405348,-0.01022357194831727,-0.014689185613991542
1628184902696370,623443.5960506937,4848822.401491527,154.13067486727044,5.221755020543025,0.908560493139037,0.30457522399094705,0.018747009652624883,-0.04980501019137755,0.6493195261270165,0.04588671973634439,-0.019539142907575326,-0.05000647679274092
1628184902800252,623444.1386130466,4848822.502406523,154.16472758732553,5.2858608947465,0.936970814541815,0.32577130877519445,0.020876635599090924,-0.03965263052284718,0.644454704960858,0.039274110079640254,-0.04568179958358642,0.017543451809692256
1628184902904073,623444.6863422783,4848822.601170307,154.19268084721207,5.283741718131762,0.9924264144718974,0.20560236218176384,0.019497292314357657,-0.03491932629994014,0.6402090428628886,0.03178555601419114,-0.012963558142181869,0.027127226991120836
1628184903007955,623445.2374716705,4848822.698976937,154.20786310940244,5.300145107706788,1.0015351534675434,0.1038468309169931,0.016207491357702712,-0.03750888852398184,0.6364739277653484,0.041217363854105,0.07814346408789803,-0.00042042226007553825
1628184903111715,623445.7940139034,4848822.801765191,154.21607798021205,5.403409192477559,0.9922719242972924,0.07841732958828032,0.01567812280913326,-0.04147194780528683,0.6327663402043415,0.032358612904930625,0.028379475438333888,0.0018992363023771213
1628184903215597,623446.361335687,4848822.911645658,154.22715105366592,5.526265680986541,1.0391615099234388,0.14060678082972572,0.01613642474649706,-0.04321239904433981,0.6298089218058901,0.024418763681806743,-0.0219926822332775,-0.026072981285031
1628184903319296,623446.9379564809,4848823.027761505,154.24500589493536,5.612225267636803,1.1545188017705883,0.19215658613922806,0.018707217675826834,-0.040908829379044075,0.6276083765818016,0.013757060065485214,-0.06429857297101149,-0.05193253262545838
1628184903422933,623447.5239660111,4848823.1437522685,154.2658697219215,5.693969204546011,1.1658799246613283,0.199791136755173,0.019035774576982273,-0.03669732490705068,0.6263009869665949,0.013846983472675245,-0.10092371672762744,0.021472318644950927
1628184903526571,623448.1177600892,4848823.260063707,154.28538609299656,5.767721121491677,1.0870744173737568,0.1709997713875792,0.018680401824901174,-0.034332605684544236,0.6252196537795959,0.010286776342737069,-0.004746042625827457,0.013605559104477537
1628184903630209,623448.7177940266,4848823.378474712,154.30088523705948,5.834392658855357,1.1258549301385712,0.13205103732443874,0.01861313657109045,-0.034428914314904586,0.6246335486649933,0.0006985512861732081,0.008627295408579585,0.018807449369235264
1628184903733846,623449.3270405207,4848823.497137754,154.3140074508445,5.911609297491807,1.205358437667543,0.12064164091960211,0.01706989142531888,-0.034713259610647924,0.6246473584587879,-0.010361476653911393,-0.01428011041612882,-0.006731106885721867
1628184903837423,623449.9448559664,4848823.618070724,154.3275836043579,6.002142477637199,1.2032763436627096,0.13795657167729988,0.016866386512391154,-0.034718935136118886,0.6250808977613057,0.00015159972004465924,-0.012767150483486901,-0.01832702362585547
1628184903940939,623450.5707310123,4848823.741901416,154.34285186991477,6.100772768245421,1.1052231689594498,0.15664104410878438,0.01757766252874905,-0.03485735644823249,0.6252761364450191,-0.003536257565606194,-0.006233612463982007,0.0030361272629232825
1628184904044515,623451.2054026029,4848823.867521394,154.35961496084738,6.165204827223667,1.2398810893243921,0.16038357773726974,0.017960067461430695,-0.03428293473621187,0.6253541355123828,-0.010972916356722743,0.002695809193084194,0.0014299253005784164
1628184904148031,623451.848002343,4848823.993111176,154.37509805482284,6.233827908443696,1.2677581236657967,0.14426419758603046,0.018018003346678923,-0.03459357979598984,0.625588176708294,-0.004090064373658241,0.0022765561152408454,-0.041801707901098335
1628184904251669,623452.4993404582,4848824.118549926,154.39032140141157,6.331298553519109,1.169179770096956,0.1516655976064123,0.017071460789827006,-0.03493489695384348,0.6259717476562526,-0.0028842911743012485,0.013799581019940438,0.015574209625732265
1628184904355307,623453.1581076602,4848824.24327272,154.40676761729603,6.398267272802096,1.1801677234240435,0.16630866745355657,0.014720297653233976,-0.03415538274412904,0.6265156807276937,-0.0061459979631209045,0.01920976001135844,0.031134823378921483
1628184904458944,623453.8227906092,4848824.367809986,154.423748522407,6.442496175613202,1.2632229552932634,0.15698322686214383,0.012326961607019777,-0.03188539438664769,0.6272792505113814,-0.011865034750431842,-0.018876267628955865,0.059964211170027704
1628184904562582,623454.492489607,4848824.493856285,154.4391919228354,6.465195405668702,1.2749576213337754,0.15404524683785,0.010268038166875354,-0.028087118185783515,0.6281865625304279,-0.004735069667017808,-0.10536537723476937,0.08120506392821529
1628184904666281,623455.1605647492,4848824.624320107,154.45605275650982,6.4014166220964555,1.1828475516949635,0.19554128163066228,0.010780089756255854,-0.027846403966322493,0.6288075605106775,-0.004632494460120783,-0.008109874372118435,0.03852016968223634
1628184904769918,623455.8292853622,4848824.754843533,154.47411461685567,6.483693644935502,1.2155403731087455,0.16314524205816683,0.013373988821978709,-0.03437461300797406,0.628946575625058,-0.006051389306292195,0.014174971784892564,0.003053902935553104
1628184904873800,623456.5086544128,4848824.874910962,154.487964094885,6.5797222988380595,1.250785836542582,0.08686801506667949,0.006088534359154649,-0.03483991613789138,0.6295027830428599,0.0064684756976371395,0.10090923788111296,-0.0779599776835988
1628184904977560,623457.1938915402,4848825.005623257,154.4973830695386,6.639403036368808,1.3289704545756875,0.11260402973566991,0.00901328695630077,-0.03410373849445875,0.6290604348509385,0.007564689044277849,-0.20601059147429346,0.02113596995670591
1628184905081320,623457.8882028649,4848825.142904323,154.51637261767053,6.816639753452212,1.2602574123933912,0.2260784782171765,0.009928149504742238,-0.02001645119665968,0.6299543360767295,-0.018761776305042895,0.0014909286931350087,-0.11509283204615676
1628184905185141,623458.589042266,4848825.27661962,154.53754376262833,6.750882026393846,1.227097345746774,0.15373960969510092,0.0077867412364434506,-0.007162348388808582,0.6303375802071003,0.01925969276189558,-0.0048623094934759775,0.024864345899994027
1628184905288962,623459.2817589394,4848825.402564604,154.5498110501322,6.596813592605816,1.326210738331249,0.07243665530820538,0.0008943371097201071,-0.005614657793799749,0.6277947527324621,0.03188640519506579,0.03371512353773779,-0.029280191004897812
1628184905392721,623459.9668023892,4848825.542707277,154.5520327975913,6.54469295346608,1.39402277092969,-0.020670725148525096,0.006723292827397039,-0.015944733132904884,0.6263031581726793,0.014263979419778888,0.11445164018114797,-0.0464815372750925
1628184905496359,623460.6513460723,4848825.684856314,154.54933538616132,6.621834394745151,1.277326091879842,-0.030344996607848368,0.010598478382449863,-0.024675011868116218,0.6239658633229741,0.03294773329846805,0.015955608584884127,0.053903067683294566
1628184905600241,623461.3459698454,4848825.825308344,154.55225641598773,6.760575915746043,1.2801041905388868,0.1021813522121075,0.014151852661334622,-0.029897775372919436,0.6204585468901992,0.03815323464904916,0.03074481244126608,0.02835436353688176
1628184905703940,623462.0512541729,4848825.968065291,154.5686347520244,6.871833161935555,1.6191809125723204,0.19054978455339758,0.011791215577465108,-0.022609943023073557,0.6181906890862393,0.03172885610880556,-0.1695351215561196,0.14861404342791973
1628184905807638,623462.7612026193,4848826.149771142,154.58554269511455,6.890185445673651,1.6875753074432382,0.09900591697397068,0.03998698912445696,-0.00668576400385091,0.6158076999790372,0.03043023240102275,-0.34860013542518625,-0.20497902421977637
1628184905911398,623463.4741728657,4848826.296619033,154.59431680337013,6.891655935598056,1.2300030788121914,0.045126546208268704,0.025381082171745544,0.0011184515932688847,0.6140437938253026,0.024582447354753,-0.036407678626594324,-0.013543905357171808
1628184906015097,623464.186244387,4848826.421539555,154.59701901788924,6.84321871985157,1.2321153146642316,0.0015345993160812465,0.010991573724892553,0.0004991663192560907,0.6088730340125641,0.06008906685993355,0.03041081287823851,-0.02008942992507124
1628184906118734,623464.8949612719,4848826.559009773,154.59064400862647,6.768009285851664,1.5453545595446139,-0.10886689242403708,0.002222504202492288,-0.009780899180452675,0.6039098253387418,0.024049607246783327,0.18514616573479611,-0.21143121568872802
1628184906222372,623465.6031954442,4848826.726849768,154.58146687436476,6.865540250703949,1.6257794979076434,-0.02338133349867741,0.013079864040969728,-0.02053806039475297,0.6002509746244444,0.037813886231791896,0.08020733021793071,0.02973623005278598
1628184906326010,623466.324575384,4848826.893226573,154.5849992217795,7.043988060512774,1.4687418060515416,0.11356976302215596,0.014395237044752283,-0.024430079581824724,0.595279493178918,0.04240278347756036,0.0424797247262704,0.09314167097787115
1628184906429648,623467.0572918227,4848827.062343193,154.60017852924963,7.115989296962417,1.6675857456501466,0.15733352437760498,0.015553194930995917,-0.018847412381337452,0.5913056068937519,0.028678631147842044,-0.100546029767652,0.09265761673853008
1628184906533286,623467.7965436506,4848827.2330095,154.61315037508416,7.156917851952351,1.7394685443563882,0.09663396070384837,0.01405869947486856,-0.011432898304984205,0.5881838276573537,0.02751277215698074,-0.07587826369294434,0.10964551230232734
1628184906636984,623468.5383327624,4848827.4098751275,154.61959134778476,7.1573416929072184,1.7346099646007203,0.0341732017221843,0.013726809193319835,-0.00722641032764648,0.58540216386242,0.02631182004785554,-0.05086970747867269,-0.014205191036468024
1628184906740744,623469.280157417,4848827.593302701,154.6212641221954,7.186688289096248,1.7008766826437114,0.0029854854922045856,0.014778501327280785,-0.004823618860651136,0.5824625624347612,0.028664356259795465,0.0009795180321171516,-0.033082298825156176
1628184906844504,623470.024204317,4848827.776690722,154.62013878462898,7.177860372510324,1.7850520109847752,-0.03516936110177736,0.014406208342105311,-0.006489525629546777,0.5791634671198135,0.03131982941347692,0.11664463518934538,-0.15026555104818753
1628184906948202,623470.7703963089,4848827.956460553,154.6183928077157,7.1642670420574595,1.8200985551644393,0.007368280225130586,0.0110036132511528,-0.008836666988444902,0.5757522580837694,0.027358848286557092,-0.15830566401010623,0.0625139807178262
1628184907051901,623471.5192545471,4848828.144204428,154.61884196154418,7.253519791234001,1.815783971045236,0.008059619292028045,0.01277729107984676,-0.008710890480850947,0.5729122224371332,0.01950869913421975,0.004368267109658949,-0.043769095519958605
1628184907155600,623472.2732548234,4848828.33569833,154.62068439796138,7.315671977406069,1.7979964611728023,0.02946959664581414,0.012094757447931506,-0.00870244017205344,0.5707998228997144,0.013043961891669478,0.005456348687143234,0.0013665432659605782
1628184907259421,623473.0324224181,4848828.529235004,154.6241871117405,7.332392417747646,1.918836435760824,0.02827361538960735,0.01097396254779674,-0.00668916985194597,0.5690223038235559,0.019006803872822466,0.010657369284461983,0.01204444814371591
1628184907363181,623473.7944210533,4848828.726685906,154.62598675263277,7.336958876331648,1.9669796967010968,0.005870323222920283,0.013396028535813885,-0.00560926145259027,0.5675953727015784,0.009556228290428412,-0.08725435106938109,0.018792855389065055
1628184907466879,623474.5591219227,4848828.924172183,154.62483393668754,7.392681307747214,1.9026350848959144,-0.010568990922002482,0.012188883176917605,-0.004823609701334802,0.5675392403414002,-0.0014190660762522177,0.0024126414210619415,-0.02512133353955432
1628184907570578,623475.3257252121,4848829.126625661,154.62408869029602,7.413666016144585,1.882233775506098,-0.004402918592222256,0.015595500282357828,-0.005411197588744414,0.5680429917515738,-0.0040659657370874114,-0.025956830153599356,-0.031816846960470664
1628184907674460,623476.0964329164,4848829.3287286125,154.62408105968262,7.433395248870383,1.962933133738154,-0.003936305486038447,0.018479660647662998,-0.006993204110007271,0.568821212835757,-0.01264758769766651,0.03451860141541126,-0.04702270432844126
1628184907778159,623476.8738000018,4848829.5224143285,154.62220582837793,7.522071984507666,1.8857818809631244,-0.02359447756335023,0.018371517904889702,-0.0077567914430031835,0.5699163914502533,-0.016162727335435577,-0.08190984049114396,0.15097977558382603
1628184907881858,623477.6604083527,4848829.7057183385,154.6192378837069,7.632483336284015,1.8089454123783004,-0.02262925626589563,0.007568301256478387,-0.0019066103198538077,0.5713757078148602,-0.006201279633662886,-0.04870013147790191,-0.007721293514316146
1628184907985556,623478.4495640749,4848829.899569504,154.61911554543735,7.623494102533209,1.8596597970008695,0.01648441535065934,0.0051348265647932195,0.0008548126642988978,0.5729501210206138,-0.017691535701972204,0.0016002292848850326,-0.005482230084906647
1628184908089255,623479.2359863948,4848830.102490029,154.61907048432226,7.551393171163263,1.9791404399811279,-0.031416536702787067,0.008783775664574351,0.0031021314680851736,0.5745482587614026,-0.01293044868367605,-0.01760749359587059,-0.05412578169377263
1628184908192954,623480.0223809937,4848830.2979993345,154.61225587667502,7.559618372656735,1.911669796863901,-0.0769736903977346,0.009776198111627556,-0.003249592819609099,0.5741053409894719,0.006615310782682818,0.10180078164308905,-0.10612502490768927
1628184908296713,623480.8127439085,4848830.4876643345,154.60695192521248,7.644956802238093,1.8035315903500257,-0.029232887303218553,0.00593051285973801,-0.008854729473106247,0.5742158168140409,-0.0072068960487933235,0.02161344544160866,0.023153778219506482
1628184908400351,623481.6082255357,4848830.680184571,154.60590595501688,7.720632595366686,1.8434714098944256,0.005129662483104994,0.0030531050081729814,-0.010319439654486869,0.5756453876008925,-0.016560828526234642,0.030154651536892802,0.03736350967112036
1628184908503928,623482.4087120563,4848830.877281259,154.60777308752188,7.749249032416891,1.982720923839258,0.028077323654772487,0.0028212247122404027,-0.006887861744142733,0.5768565393394433,-0.011133200789674958,-0.06710651886615511,0.06368021298503793
1628184908607566,623483.2145377357,4848831.075202263,154.61053053102472,7.80077173990827,1.941192062708857,0.015016539740230761,0.0025737183354268773,-0.002034096034738641,0.5776714396950611,-0.010128212708861552,-0.05752619432024939,0.07058066568774472
1628184908711264,623484.0242053148,4848831.268935066,154.60924722219949,7.867864813716665,1.7381130324565235,-0.043062099344386484,-0.0003956957977410823,0.004185719933538663,0.5784958036892043,-0.008411110528677376,0.06339524098942455,0.02582669646934828
1628184908814841,623484.8324688298,4848831.458147624,154.60302587508977,7.790440565983275,1.8546404075029974,-0.0706948238094724,-0.004911129933977691,0.006727420521917521,0.5792157588663157,-0.011492033231116864,0.02031560486650283,0.029964095140988713
1628184908918479,623485.6392699145,4848831.64817687,154.59497353061616,7.759764797847931,1.9112091861516873,-0.08700943706593375,-0.007544649839419533,0.006450448632921876,0.5801829341965961,-0.00822296553299467,-0.010583363569119321,0.00682885466365926
1628184909022117,623486.4461142708,4848831.837417942,154.58363895282037,7.793785874367859,1.8282774934559454,-0.12244844715531795,-0.010094536774854345,0.005494067803255941,0.5809417970062299,-0.011876831420025002,0.018363153696564532,0.0016208168767225706
1628184909125754,623487.2549674839,4848832.0268702535,154.5727071690446,7.841299094103781,1.7684715359639578,-0.08304012256695831,-0.012770947857203075,0.006039692394603219,0.581679823308633,-0.006857879576994687,-0.013055155862888967,-0.022562374756279025
1628184909229453,623488.0649594975,4848832.220777725,154.56547458401874,7.797591496094862,1.921623028111345,-0.06080060700533897,-0.012711368783779665,0.007767968565607536,0.5826700380068703,-0.005073326501208197,-0.0348437688610208,-0.012093740858963403
1628184909333152,623488.8727931072,4848832.415694167,154.55841441156463,7.75100460417392,1.9388384243943622,-0.07791093341408911,-0.011406784800534631,0.007285696849725415,0.5832734747115318,-0.0037266940502615506,0.023571056471192214,-0.031791106452985864
1628184909436912,623489.6790959036,4848832.610631378,154.54919530389236,7.769201256724261,1.8595130540928109,-0.091706912474488,-0.009628527116952947,0.0035944784612370185,0.5834680835914351,-0.0010789045463457793,0.013595568562206332,-0.02484397842532125
1628184909540671,623490.4862988159,4848832.807442195,154.5401057484184,7.802470568662657,1.8069070419651418,-0.0818211716246193,-0.007012432677612708,0.0016574355490307064,0.5836356135548116,-0.004760356548168988,-0.010383978440921678,-0.008189300213374157
1628184909644370,623491.2944508016,4848833.005082794,154.5342249192145,7.788823147197586,1.952346929743106,-0.03600655936168745,-0.0043937693549835,0.0012481739383634685,0.5839648599083789,-0.005996885800645728,-0.010767803006844795,-0.030405370739984176
1628184909748130,623492.1032400236,4848833.202248243,154.53151855486064,7.773065882617897,1.9391291914399698,-0.02874237303224129,-0.0016232278536396252,0.002069679011918514,0.5843959760298382,0.000456301358180364,0.006617215928050531,-0.01644956014450277
1628184909851951,623492.9116606776,4848833.393564344,154.5273321756832,7.779688396671276,1.815714884557008,-0.04748945834171313,-0.0028907931989710575,0.0005586681109346767,0.5847534721905668,-0.00202766894628808,0.025893609146911262,0.020237310988795665
1628184909955650,623493.7182066895,4848833.584327173,154.52238564257704,7.792679739638424,1.771964151642637,-0.04458343778307777,-0.003380779017780349,-0.0005678348784647125,0.5854335359264151,-0.003395573504982027,0.0031450197244437808,0.001632104578379794
1628184910059409,623494.5256875568,4848833.776559686,154.5186062622255,7.781206374891637,1.8835540882858721,-0.03301425637991299,-0.00251555324351245,-0.0004130703158259126,0.5861167488776158,-0.0017065590776092212,-0.00940313814535149,0.003236615855492454
1628184910163108,623495.3332844767,4848833.9658370875,154.51578658441665,7.779851636562911,1.8857706154994587,-0.03090959938193666,-0.003228059965307593,0.0028280453385887724,0.5864494740774542,-0.00021851291935802132,-0.06503827852657712,0.04611925334543341
1628184910266868,623496.1411614693,4848834.154248336,154.5116827794813,7.793843798081773,1.786508782346169,-0.051019480163394394,-0.0034809049387052194,0.005568573467845223,0.5871918633584589,-0.012465431779598357,-0.005604104161736075,0.02319869271609588
