GPSTime,easting,northing,altitude,vel_east,vel_north,vel_up,roll,pitch,heading,angvel_z,angvel_y,angvel_x
1628184886551599081,623425.5464750652,4848820.9989206735,154.0622260719636,-0.0007227281702970484,-0.0008480713630550623,-0.00018438131350497568,3.131351979919707,0.019720866887263266,0.2367720262139094,6.861343653453758e-05,-0.0008743092748024542,-0.004908079360223678
1628184886801550666,623425.5464652807,4848820.998891991,154.06222449555852,0.0005926756722744828,-0.0007129602402300587,-0.0001260970936260686,3.1312963987539892,0.01970079475885221,0.23675085346175226,-0.0008159171341103981,-0.006283096316366369,0.0008023221246129347
1628184887051615447,623425.5464962076,4848820.99891844,154.06222673163933,0.0009450104876153739,3.073820344476528e-05,0.0004875090145442333,3.1313451928830687,0.01976072396637319,0.23672134805160722,0.0007774756542971607,0.0006602046512051938,0.003659762594943511
1628184887301661066,623425.5465400444,4848820.99890616,154.06222603003124,-0.00015644792409124833,-0.00010704798674534017,0.0006192925228279556,3.131322338583638,0.019846253083507067,0.23672902105870225,-0.00013296476825708432,0.0065104726550159735,-0.0007024589031672286
1628184887552814490,623425.5465025979,4848820.998904784,154.06222536262257,0.0001424323300132794,0.0011919519198754537,-0.000379328398843105,3.1313211949454898,0.019776971113736823,0.23671859501836495,0.0016766386334852758,0.009711248971866636,-0.006281658299070654
1628184887801676622,623425.54646763,4848820.998918459,154.06222576381708,0.0002178075560507624,-0.0005042495236164996,-0.000406290278186034,3.131345842452344,0.019708973633869226,0.2366848416823208,-0.0008202631850833341,-0.007857288890620767,-0.00020139304785818198
1628184888051467980,623425.5465000897,4848820.998921732,154.06222639143826,0.0009411068001310931,0.00032588306246741314,0.00022226575488742332,3.1313503757975396,0.01977061274803856,0.23668554432910782,0.000821503841520638,-7.475390305425906e-05,0.0012180335748327798
1628184888301655353,623425.5465090125,4848820.998923799,154.06222718609618,-0.0004722754286109796,-0.000309240362047117,0.0006778811164871094,3.131355798022225,0.019790309413459408,0.23668239185636036,0.00030656701192008096,0.005431982647659659,-0.001467578364590598
1628184888551689639,623425.5464857367,4848820.998926641,154.06222734882724,-0.0004481793833449402,-0.000285403815746196,0.00048401019862388936,3.1313612807520435,0.019743289654925632,0.2367202321140676,0.0009809009486720542,0.0008309170406328987,-0.003180148252101246
1628184888801764896,623425.5464878842,4848820.998926538,154.06222667607943,0.000285570926402004,-0.0003480926980148088,-0.00017013746832837624,3.131361606990456,0.01974355371342367,0.23674047884911356,0.0004838028240547777,-0.002596483197520934,-0.0006791940354143207
1628184889051928875,623425.5465110509,4848820.998927768,154.06222665659587,0.00044670429548251966,0.0001851789764292997,-0.00018516554089600016,3.1313610595994787,0.0197903034717114,0.23669787378440446,0.0004987995133921078,-0.005332832308424427,0.000872140696481534
1628184889301665945,623425.5465181484,4848820.998900072,154.06222494029728,-0.0006258045941818349,-0.0001477585961534413,0.00018935265367614636,3.131310196287801,0.01980824701280665,0.23668006763811308,0.0014047833762860932,0.0019206363173736988,-0.0015269850861310721
1628184889551858596,623425.5464658545,4848820.9989187615,154.06222591895386,-0.00031185653948311574,-0.000250457466532408,-4.581652414629158e-05,3.131344993704746,0.019708314886891592,0.2366503314734373,0.0007733659079881891,-0.00337280229463935,-0.001975069204692214
1628184889801852197,623425.5464874419,4848820.998938812,154.06222733499163,0.0004053390433286542,4.799779825641021e-05,-6.284110757806826e-05,3.1313825637905848,0.01974700300251532,0.23666918280771515,-0.0016723089605471982,-0.006608924761150927,-3.201110346828996e-05
1628184890052030476,623425.5465053207,4848820.998884138,154.06222451848234,0.0005667269924048706,9.253626039338407e-05,-1.125792128843855e-05,3.131277522231765,0.01978029835421688,0.23667337040403072,-7.453470162408904e-05,0.003268666840843348,-0.0007480690583318943
1628184890301981900,623425.5465204743,4848820.998932965,154.06222712099216,-7.832852741450997e-05,0.00018412888118697745,-0.00010364900122147108,3.13137292301641,0.019811673273783064,0.23669916885934233,-0.00045275072998999296,0.008964641851433707,-0.0005742665932244209
1628184890551900559,623425.5464639618,4848820.998901262,154.06222474498898,-0.0006424166122355346,-0.00017775553279206473,-5.051644085589997e-05,3.131312023769839,0.019707124018480526,0.23665016912084139,0.0003936937893824528,0.0022931582826390923,-0.0012596139990938547
1628184890801680934,623425.5464670171,4848820.998968736,154.0622289724471,0.0008098400234857598,0.00021473836179186908,-0.0003396988502942687,3.1314390013728186,0.019707365875732217,0.23666533381211344,-0.001304095061514725,-0.0076095200182186564,0.0019218237402562617
1628184891051548291,623425.5464977381,4848820.998881526,154.06222406522897,0.00021976299504249336,0.0007583754840224477,0.0003942111699882828,3.1312724945699677,0.01976985089418614,0.2366359714203882,0.00048497776234336193,0.0027674170224357454,0.0038654059083245173
1628184891301468280,623425.5465030214,4848820.998936071,154.06222771871722,-0.0009449050931066897,0.0005306893822663574,0.000890595341883027,3.1313773090200003,0.019778803655522866,0.2366811859612656,-0.0010869598907229188,0.0006943219049473817,-0.004388274935041387
1628184891551543975,623425.5464647395,4848820.998908347,154.06222575199143,0.00033949441100673334,4.312941945566747e-05,0.00014145804577143017,3.131325196685589,0.019702940543817982,0.2367004639558359,-0.0009257439987256329,-0.003780108220197914,-0.0035744231665189724
1628184891801627601,623425.5465232313,4848820.9989278875,154.0622268973799,0.0012482805556656943,0.00047024106346140165,0.00024684596480901977,3.131361666780156,0.019812178625489316,0.23670467691372352,0.00029558243207294233,-0.002103711557554785,-1.6843021667600092e-05
1628184892051627025,623425.546519571,4848820.998933007,154.0622264220932,-0.0006056782261098783,0.0010937985811594322,-0.00021795546081341058,3.1313698616424843,0.01981007091993585,0.2366893515914526,0.0023153676466715583,0.0040636644985318805,-0.0025258666824701814
1628184892301766437,623425.5464902365,4848820.998901133,154.06222392540403,-0.0003029119570433769,0.00038017518917927556,-0.00042830456776845824,3.1313096921927253,0.019751574062857446,0.23671261980789343,-0.00051098357632042,-0.00454147407661903,-0.0016149358955966306
1628184892551371433,623425.5464796198,4848820.99893999,154.06222687124588,0.0005309399355392426,0.002650458046909144,-0.0010058372623719678,3.131383625885377,0.019729225354021728,0.23674533093148878,-0.002148719491573674,-0.0012930757344287115,-0.0020007802491734156
1628184892801370007,623425.5465004079,4848820.998911382,154.06222548408408,0.00048283626036486817,0.0026474282612169078,-2.7926825932787088e-05,3.131328762773065,0.019770755743229024,0.23670740375960692,-0.0016458512344582636,0.0009735165528049822,-0.0009917471677456035
1628184893051357806,623425.54652935,4848820.998896004,154.06222449882048,0.00032586078943674837,0.0029741121699612193,0.0003248458900351528,3.1312987896331514,0.019827948711683287,0.2366684722956618,0.0011601586067054037,0.0032652518709299456,-0.00017072673026209152
1628184893301557047,623425.5464711564,4848820.998920149,154.0622260539038,-0.00038809028189467173,0.001191441387397364,-0.00013475395657920397,3.1313454172496273,0.01971737428413185,0.23668274225227773,0.000848685823498378,0.00012456106732961747,-0.002282125169457051
1628184893551617800,623425.5464236424,4848820.998947828,154.0622282383388,0.0007303656517165451,0.002196421981663637,1.8024690208531797e-05,3.131393492344874,0.019630790427959486,0.23657134104551952,0.0007295048943205228,-0.0028130377763132207,-0.0026012077437272867
1628184893801667270,623425.5464963466,4848820.998885517,154.06222424144542,0.000921991744414243,0.0013841736850597655,0.0002007252902477957,3.131277612623885,0.019764343729629544,0.23664803305525076,-0.0009591304393922148,0.003279420627612802,-0.0006107355030870601
1628184894051859090,623425.5464867034,4848820.998991495,154.06223075200447,-0.0006786775499259281,0.0005715959807781604,8.059598343585162e-05,3.1314793856886087,0.01975312439468871,0.23660999009329628,0.0022576011170740208,0.000630751903022685,0.0007148520991650362
1628184894301829653,623425.5464550406,4848820.998916218,154.06222551170168,-0.00019120572170023306,0.000933835953937507,-0.0002537393091436447,3.1313330268169257,0.019691413535540596,0.23660095836662076,-0.001851019922624401,-0.004627277488951182,0.00011486101238879702
1628184894551670527,623425.5464836031,4848820.998959955,154.0622281937008,0.0006460854290369418,0.0011046571823157218,-0.0003352968743087592,3.13141902835341,0.01974374055073849,0.23659689156750677,-0.0004908369977148168,-0.000990025771117004,0.0016255253508026088
1628184894801675601,623425.546531911,4848820.998974014,154.06222917292135,0.00021598458198497146,0.0020358858119690136,4.719889850888097e-05,3.1314426457763194,0.019839707664872603,0.23653348585595882,0.0011576748979452765,0.0028916048472432563,-0.0010032138491838942
1628184895051681739,623425.5465253296,4848820.99891001,154.06222454336057,-0.00167296085225192,0.0019749157555987943,-0.0003717532404903706,3.1313203217882086,0.01983405679118501,0.23649691072679327,0.0014190633748222994,0.0015103780669022161,-0.003212903586809106
1628184895301760262,623425.5464860655,4848820.999672214,154.0620297750957,-0.0012253355260222446,0.005915673723586754,-0.002853092432745484,3.1314166350957877,0.01972796168948197,0.23649760919012858,-0.0025343272491076103,-0.0062338623079737565,-0.003188605807050944
1628184895551659884,623425.546542124,4848821.0013272865,154.06144202752856,0.0020875971351357963,0.00956418426281767,-0.002055130781820193,3.1313289262590893,0.019959566544643703,0.23654237634310474,0.0014854246859750066,0.00018797140344558832,0.0009578243092587269
1628184895801846209,623425.5538892122,4848821.005325793,154.05964543616156,0.06399426363398654,0.02339733039430321,-0.009447344106426309,3.1316263740437256,0.02114550407438428,0.23672528125584222,-0.001768799455727062,-0.007047625076465284,-0.0013079837738486876
1628184896051726647,623425.5852032829,4848821.014974696,154.0585124783127,0.18263500051669107,0.054891753168792974,0.0077102479088716775,3.1321620028391863,0.02285190157235111,0.23709658564027794,0.00019903567374958167,-0.0014009491160631876,-0.0006971557495879581
1628184896301969102,623425.6331217457,4848821.031876075,154.06120385197036,0.21015694595503925,0.06215432266566239,-0.002128065430353777,3.133735293868393,0.020498662852577416,0.23642429935496048,0.005494170673738941,-0.0027368651201319667,7.927511115269885e-05
1628184896551839861,623425.6899472655,4848821.045758837,154.06161617580594,0.24417867597424128,0.051242043340029325,0.0025256153670698616,3.1335927039516402,0.02031025006074019,0.23437192615881577,0.013040432451684672,0.005875159956391062,0.0010476650866719426
1628184896801781244,623425.7559172637,4848821.059487431,154.0627651299739,0.2821496802153261,0.0606232054374119,0.003569033238013457,3.133004576623472,0.01964156304320655,0.2311793679320165,0.019587353098347787,0.0003086013098480167,-0.0019248345447574033
1628184897051968343,623425.8359974059,4848821.077188639,154.06254155442164,0.37975851574483405,0.07171956464012462,-0.0058539519875882295,3.1335183478434367,0.020329417985545817,0.22449519247110408,0.0335804069778109,-0.009726745430380745,0.0009681654484055866
1628184897301978017,623425.9613405985,4848821.096686393,154.06217278091066,0.6426198858817175,0.0932554973135032,0.007938887706208451,3.1326602211383205,0.022802974817617765,0.21279861197262287,0.06343728818621387,-0.004683180357062976,0.005414590278814441
1628184897552004020,623426.1641578851,4848821.128000366,154.0647582959991,0.9825445225305556,0.1572467666756067,0.009134253114573141,3.13250988749611,0.02284983257136714,0.19087615555057133,0.11088117173094003,0.0015725131953526186,-0.011165281655384045
1628184897802046621,623426.4491659463,4848821.16084109,154.06873941265454,1.3014286393592474,0.09211529449355974,0.018936366477582962,3.1316716733987833,0.021699383700380562,0.15966569492186736,0.14213986615584245,0.0021797333851638276,0.025104434257040627
1628184898052271004,623426.8120631407,4848821.181142562,154.0718321873376,1.6130514426018223,0.11156920126231402,0.005240511558073636,3.126995281226567,0.022361071416488333,0.11793402300624035,0.18192188891597208,-0.003843057289608368,-0.003434314438102434
1628184898301967217,623427.2561191431,4848821.207279382,154.07515489391608,1.9576118183725577,0.030957699072697936,0.02417567355290203,3.129929946953484,0.02053727368221819,0.0723711793938284,0.17826702804203012,0.015345970760444543,0.009934619471582256
1628184898551674910,623427.7791793469,4848821.199547009,154.0783413003024,2.240290663304186,-0.05892730491406592,-0.0037268240980206507,3.124626820387802,0.01890576616159831,0.028112037319902333,0.16428565980002627,-0.00237514605644651,0.011463859011050358
1628184898801515651,623428.3732590375,4848821.184806901,154.0792418461182,2.5287336041007715,-0.07987808656390333,0.014612312114583297,3.1224866423925457,0.021578131469021274,-0.0077798961259114684,0.11956639834583695,0.001226560582440937,-0.016102635818028548
1628184899051500144,623429.0399650334,4848821.162778437,154.0820878903676,2.8031740453668945,-0.14709540229381715,0.005995334020027013,3.1228970840080037,0.01877484210957516,-0.029922655267428915,0.06818302178320344,9.116431221901939e-05,-0.0035645425541093725
1628184899301554008,623429.7673637058,4848821.132822828,154.08395548312438,3.0240886467834014,-0.14932620727843368,0.017945768489492184,3.1226923956703434,0.01784942267829933,-0.04127515431846711,0.012670268483729995,0.000505781927642226,0.0006993406534491027
1628184899551497861,623430.5486967142,4848821.110203618,154.0904219621143,3.2339714690764723,-0.05948284395675399,0.031076749887664012,3.123969866971533,0.017494150661808976,-0.036120138144837895,-0.04852418523715653,0.00312302390158421,-0.023180143178398387
1628184899801610897,623431.3806618293,4848821.118684909,154.09553274673726,3.4163453377000477,0.03526228034263271,0.009679087407602559,3.1332123385865307,0.014501772640069304,-0.020206107590479264,-0.06917144804409228,0.005072456131896551,-0.05686915650379322
1628184900051613800,623432.2542650986,4848821.139171342,154.09918260477187,3.5584453025713647,0.04683573206784918,0.03266762575314475,3.1412750242073715,0.01618878132633463,-0.0026295843612866793,-0.07142675113261301,-0.01423398566208717,-0.011430908701936195
1628184900301748362,623433.1670869834,4848821.1630292,154.11100819798818,3.707262715953707,0.12222387183702081,0.042774864209886035,-3.13935722217761,0.021342838033107603,0.015415193615630825,-0.0751513503183608,-0.015328465784767454,-0.0028285557559982145
1628184900551519048,623434.1167351656,4848821.212664679,154.1168631633097,3.8726631461267904,0.19487257655907675,0.030205998195486597,-3.134191833295952,0.02851215446056399,0.03494899300170633,-0.07530541575880395,0.003888643559897404,-0.01796156476844326
1628184900801484051,623435.1004999949,4848821.283525122,154.13026302451811,3.993660273526558,0.288811817998784,0.09192950226627286,-3.129671428531092,0.028475252038062344,0.05323452328200425,-0.0797174540325331,0.005916650549036156,-0.03307439078139245
1628184901051630365,623436.1105926514,4848821.370886082,154.15573669723167,4.080139489733386,0.32376115142887635,0.09182756023218948,-3.1258682731497363,0.028023453053527873,0.07268029859909701,-0.07305529110900322,-0.008955116858199726,0.00672599551144841
1628184901301511799,623437.1461150207,4848821.46681534,154.17433713250938,4.178523711432584,0.41245826151454146,0.08038708476628575,-3.1263477077364548,0.034328325288462844,0.09081626320996732,-0.0693567552438637,-0.00792149157662364,-0.008811897533010272
1628184901551674718,623438.2137856327,4848821.595060309,154.1994578383524,4.340154144508035,0.5051997435853876,0.11755101033033175,-3.1227845910732466,0.04146381021245432,0.10731985068214159,-0.06891738039528848,-0.006397201822824923,-0.007691719965722674
1628184901801626520,623439.3208558424,4848821.730845689,154.22895996734968,4.518977012234528,0.5751177626973839,0.11810279744077046,-3.1253874026291175,0.041599996862714296,0.12277823234628728,-0.0550562799079192,0.008848983767758589,0.015600271970365624
1628184902051950298,623440.477544334,4848821.900408796,154.25994460480595,4.709680742783672,0.7303670540215559,0.13571790841792442,-3.122940969181999,0.02591375088656332,0.13567768239704153,-0.04844169578105465,0.04678853440516579,-0.03532367409945598
1628184902301836364,623441.6511947678,4848822.0795668615,154.3009802561615,4.736859055961164,0.7015354114124307,0.15337617610177806,-3.1224539341082287,0.03791356197292426,0.14724618624395583,-0.04475166462570428,-0.04500540395700804,0.019890918179053394
1628184902551948686,623442.8734840277,4848822.270714107,154.31626888533492,4.967617750197559,0.8540597399179403,0.023764663725224677,-3.1252977395155903,0.05405968848468027,0.1599979662901645,-0.039366048389594704,-0.04096868123827568,0.010883485625392994
1628184902802132140,623444.1568904547,4848822.508516899,154.37513043567898,5.28181533610229,0.9638677563480195,0.32015011183621633,-3.120684772161709,0.039650275249085425,0.17017040859351829,-0.0430519418513344,0.07772118774703227,-0.021627372618664088
1628184903052201472,623445.481812285,4848822.746147559,154.42149165297684,5.3426611789966385,0.9980896970344714,0.0752597953420028,-3.124233085707245,0.038932206895460654,0.17967482052293168,-0.03574725769386939,-0.09874999477734069,-0.031393737741330134
1628184903302162842,623446.850591806,4848823.011714717,154.4514882970933,5.602049925906262,1.1267168113190678,0.18902440376211183,-3.124146660539838,0.04124336921716004,0.18667194133928658,-0.01637459043321345,0.011053816360925707,-0.0578829643159677
1628184903552203274,623448.2724674157,4848823.29244709,154.49944009022576,5.768953235111443,1.146544113453574,0.16036956618744155,-3.124125522459639,0.03380157914541831,0.18942643933916412,-0.00745713525696522,0.004656075957154314,0.04752794837154553
1628184903802331770,623449.7419192472,4848823.5804816475,154.53271920475407,5.974581926500927,1.1878271625050048,0.13027666174947614,-3.1245740835645672,0.03478564427278482,0.18957770748520056,-0.003264748369766126,-0.002286623901032123,0.012289656060470472
1628184904051952629,623451.2585503411,4848823.8802070925,154.57063577709033,6.177927990030775,1.203156209385163,0.15760876833877985,-3.1236388568521556,0.03431059999490758,0.18916528763331278,0.000333210175160276,-0.006082224465183255,-0.0037610789257789615
1628184904301979778,623452.8256905561,4848824.182384448,154.60795930859217,6.360446975546838,1.201219479237083,0.1589631072302823,-3.1256047246716574,0.03489491488137015,0.18839115188610578,0.007646249676493791,0.012167905335209903,0.0058820633828989425
1628184904551954563,623454.4299522858,4848824.482777974,154.64749704423528,6.481310544444656,1.2314786091664927,0.1482060448971679,-3.1313286216108946,0.028755088611174855,0.18640827648221592,0.006324254626474745,0.04397264787294023,-0.009414740255287627
1628184904801882429,623456.0444356115,4848824.795553987,154.6889214577705,6.531020821672128,1.1606910209343546,0.14621326959022038,-3.128501922632691,0.03432592732474461,0.18534002952279116,0.009328139966419386,-0.03429284205846178,0.025609775869146246
1628184905051704408,623457.6949836235,4848825.104640793,154.71960269945708,6.779293417348663,1.2925908240352255,0.21850153084451865,-3.133471550771979,0.026233254741394225,0.1850173170790073,0.006761522552627173,0.08422152647142876,-0.021264265588049273
1628184905301970121,623459.3693457836,4848825.420040143,154.76068193299082,6.597558284836306,1.293981779767343,0.059715821787641975,-3.139698836787671,0.0066158250215471335,0.18712602410121748,-0.02249417574362032,-0.14058423378776283,-0.12601553289507567
1628184905552293528,623461.0296826506,4848825.7653585905,154.75916746284386,6.6676032085694645,1.3545044582986725,0.027564729797157794,-3.126105756943492,0.028388330294564775,0.1924488652082355,-0.0330899397255427,-0.06080388770701931,-0.043781276079994415
1628184905802205774,623462.7254823154,4848826.147910666,154.7946954090048,6.8927391019049935,1.6804486909528258,0.11603548584754277,-3.1039313176952,0.0073238231633315325,0.19861375011368448,-0.013301689695671047,0.03462203864611387,-0.4800783799437464
1628184906052037235,623464.4402010115,4848826.470974443,154.80661021779076,6.8217636087567515,1.2975745057079409,-0.03752757042483437,-3.1297854598769423,0.0023489855178193005,0.207750256725699,-0.056281760875821915,-0.02547136384810603,0.05878172563481206
1628184906302114284,623466.1615731198,4848826.859314728,154.79293146786594,6.994414541113156,1.5981518821660803,0.07060406906876332,-3.1244759041498162,0.023350222148297944,0.2181481254274542,-0.061886326625219694,-0.0037767581509458845,0.09381325043585714
1628184906552144785,623467.9338351686,4848827.266867977,154.82473630469406,7.1707957099359945,1.6854704024899558,0.08009016516857885,-3.12871718146779,0.010668587391160207,0.22684900178051529,-0.029998191185064364,0.04428953880024714,0.06345725232547665
1628184906802170078,623469.7218239849,4848827.706045621,154.83085063207355,7.155774698086272,1.7717382219288134,-0.007674064460487233,-3.1254155365626675,0.0059131948460882326,0.2340857926037526,-0.02761349493420916,0.11047469255741227,0.028648386883158385
1628184907051975590,623471.521627171,4848828.147024865,154.82881758353884,7.252088501680258,1.8235853207098451,0.00727738417829793,-3.1288127767719196,0.008713090350042179,0.24163441120242388,-0.019558869051904484,-0.03883368802261974,-0.026233090682093115
1628184907301966542,623473.3457918575,4848828.612298684,154.83525810025654,7.347369983953066,1.8830821980300354,0.018623291822154643,-3.1294834232463407,0.006008756880332282,0.24618726584364406,-0.013448254347028073,0.02156475515834136,-0.023093509031373662
1628184907552277205,623475.191484006,4848829.093818441,154.83413468708244,7.3898556930070525,1.9605813350763337,-0.004530801544521679,-3.1266745986657734,0.005265044067213586,0.24666776215238187,0.004995638140526369,-0.025072015867975115,-0.02826068460287901
1628184907802107239,623477.0557578211,4848829.566823349,154.8313432324498,7.596011576373802,1.7852630292870744,-0.03409402186495102,-3.1276364592730967,0.005684302152653247,0.24411831216682778,0.012498674524975825,0.1080795770981622,0.26290020691344945
1628184908052032917,623478.9535660865,4848830.030801935,154.8299325826159,7.58845844027608,1.9447879373981622,-0.007303858917551835,-3.1350453800404527,-0.002708177403364713,0.24054735063750746,0.017804030721434192,-0.030852537038224413,-0.06793652057441944
1628184908301940586,623480.8545716632,4848830.498463716,154.81680329759524,7.641594142114526,1.8319681932899992,-0.026012914331313468,-3.1358551181585,0.008956130281125543,0.24028298614743746,0.007322950859931017,0.0010517321994182786,0.04464286090116358
1628184908551995859,623482.783061817,4848830.969583841,154.8191770160806,7.791660916288625,1.9002363762423309,0.029777356204974972,-3.13916497027781,0.004979193602716367,0.2373097731482221,0.008162323461019222,0.055459089833836635,-0.024983705343633755
1628184908802047704,623484.7313780296,4848831.433756259,154.81393022823195,7.799075205669734,1.831340782553697,-0.0700986830793575,3.1372519719265264,-0.006693408009431139,0.23548902246338982,0.012204532144332468,0.017519957706440242,0.0524100655150559
1628184909052123299,623486.6791186086,4848831.889745411,154.79001055737945,7.801281520682832,1.8271239810200284,-0.11683955849056735,3.130920671370819,-0.005129072739573797,0.23338781312263773,0.011353915874758123,-0.0012018119499755135,0.05656424918124263
1628184909301897073,623488.6281304358,4848832.354247977,154.77078766823092,7.784135428093434,1.8514699098157306,-0.0715898634694627,3.1292627706354383,-0.007776227113910161,0.23139798695991184,0.003704347546086448,-0.017893409026570283,-0.02512776111654954
1628184909552089430,623490.5749642554,4848832.827560427,154.74922795662002,7.787195433748114,1.891411249795304,-0.07472929818405323,3.134731452456246,-0.0014720251241644579,0.23086715519310277,0.004094746428375269,-0.022931664931207442,-0.006474976288258776
1628184909802053380,623492.5228663571,4848833.301602194,154.73958897284183,7.782537239505124,1.8388495000981753,-0.041289474921298905,3.1392467054231816,-0.001624772794871126,0.22996332127617602,0.0034090974743830856,-0.009782856484819141,0.005933279600755867
1628184910052051420,623494.4684837464,4848833.762380258,154.7288461382661,7.791722250950443,1.836819453636552,-0.03144237823113142,3.139097332226008,0.00042917787499407864,0.22847372495617152,0.007019293978955788,-0.0006754619886717057,0.0055182825570678
1628184910301955372,623496.412519505,4848834.216887555,154.71971402660526,7.786038624328748,1.7984343724873346,-0.06009708402761181,3.137590964530103,-0.006766788275636872,0.2268631285618242,0.014787215218426903,0.018982424575613405,0.0021931926144258245
1628184910552215948,623498.3537697763,4848834.671194015,154.69697124674212,7.753916590818949,1.8030767829031653,-0.11060592668454629,3.140603345005938,-0.012778338146348793,0.22094077954618935,0.033756186925271936,0.020550866043832355,-0.038359020329644854
1628184910802224931,623500.2920369104,4848835.101405507,154.66278232216575,7.755684968934195,1.6802588819780362,-0.15800867263383686,-3.1412105722850985,-0.01765206595944235,0.20849856854170773,0.06254666374334053,-0.011435111968664976,-0.046722422349229596
1628184911052239108,623502.2322652502,4848835.491339913,154.62010750926697,7.7521253621308635,1.5429196848892452,-0.1895870741597374,3.1386526995045902,-0.022656632579108712,0.19006429088661236,0.09329668097586634,-0.027111477114036234,0.013322848538508692
1628184911302295325,623504.1634449379,4848835.858556635,154.5769037204684,7.685790974568547,1.241973364422787,-0.17959036139973739,-3.131937716724486,-0.016040716546475646,0.1651915003485567,0.10326592471074908,-0.1286287467452347,0.026070783660810063
1628184911552122628,623506.0957348057,4848836.158881536,154.54323229020517,7.775971527096771,1.0592926596432621,-0.0885140484411409,-3.12765000189072,-0.013229565157225964,0.13550781323903277,0.11392793955165839,0.08002381728796638,0.0477884439737553
1628184911802002190,623508.0337607347,4848836.388828606,154.51750155249852,7.727154270617822,0.8262863398730201,-0.16391663080777547,-3.128791995378096,-0.01703468392758954,0.10739219236594955,0.1320237768329746,-0.02504336816682172,-0.059558150809196284
1628184912052042836,623509.9617976233,4848836.577384561,154.4795583793606,7.67926295107441,0.5115176502243289,-0.13229735096563253,-3.1196314552989075,-0.01735639763798352,0.07452102222715747,0.15712719351946272,0.0038549733765093695,0.3651784349224817
1628184912301853745,623511.8785999974,4848836.680922707,154.44760540152168,7.662110591799804,0.24563087309820553,-0.10834334478559723,-3.119381224639147,-0.008926864360684482,0.03549492431071311,0.17006654991086098,-0.033655971306579435,-0.009339443605285595
1628184912552055251,623513.7951360492,4848836.703321911,154.43227597768717,7.6729174989385065,-0.07401311280273605,-0.10903146950611672,-3.1171051952235533,-0.015138911738019088,-0.00583756346323768,0.18397143049095058,0.05446099464448707,0.008323192540522707
1628184912802070102,623515.7013006067,4848836.641639801,154.39562257635936,7.612196046744715,-0.45304085355461277,-0.15965532511262276,-3.1164939718304305,-0.02497652956738682,-0.05135270228339075,0.1822725866819305,0.01550195602448518,0.0022207007346296574
1628184913052076052,623517.58323828,4848836.496783794,154.3486942289466,7.438085696571047,-0.7682404468214892,-0.17846731497610183,-3.1129077173882647,-0.020911431200129678,-0.09851664306097019,0.18110111782532656,-0.03845885634897003,-0.04153276516685353
1628184913302125224,623519.439324572,4848836.259393835,154.3118942357843,7.404914426747806,-1.1024210508254073,-0.11575163089321547,-3.1128581988220057,-0.00801818751865219,-0.14414816847455378,0.1914870064827718,-0.004203426438086292,-0.02763840509734673
1628184913552012542,623521.2801819841,4848835.946775229,154.29429426439083,7.299400468647113,-1.4409833605640239,-0.05302970156543893,-3.108186051029439,-0.0133189188869961,-0.1912424869407149,0.19303268463755557,0.01495277683810827,-0.0020479595962914834
1628184913801875456,623523.0793779325,4848835.538888268,154.27055315400096,7.147665200089843,-1.8476057092242968,-0.1208267463490568,-3.109058392165336,-0.006746061072115773,-0.24297424788327823,0.2263816410479016,-0.013926954140908991,-0.002727973535196969
1628184914051932714,623524.8541363326,4848835.035791333,154.25338872557177,7.022044412122055,-2.249854131785954,-0.03649588285939956,-3.106232093728797,-0.014610777649900758,-0.29929749037940057,0.21874098236698783,0.0079881704583957,-0.008019398702069424
1628184914301796238,623526.5877757396,4848834.447149993,154.22580774556857,6.892745999847548,-2.6012675459112637,-0.15731897841679177,-3.097757305392885,-0.012907704882526242,-0.35700086868694025,0.2425383856927028,0.02151778513132001,-0.02770014099801387
1628184914551808393,623528.2871617622,4848833.738860287,154.19088903705236,6.719756105286153,-3.1259945965135243,-0.13980462768713992,-3.0967636211029124,-0.03109038192274526,-0.420705429425592,0.26735489708102084,-0.002848538331468495,0.031360771308856956
1628184914801849691,623529.9176016294,4848832.933857974,154.14828715641315,6.302172478392646,-3.480554212010318,-0.1820629994951542,-3.088375542853971,-0.025530508073798804,-0.49359145200973775,0.299392080496823,0.011429260224535758,-0.10024360811889389
1628184915052006861,623531.4606101171,4848832.002037293,154.1049759518014,5.984923545645179,-4.032484468277466,-0.08050169300171445,-3.087780431552266,-0.009386487776954588,-0.5711475047711267,0.31292456371694555,-0.011419684503285874,-0.009222591115206779
1628184915301930431,623532.9180309145,4848830.942692792,154.09325049563282,5.664479281603275,-4.386106444079862,-0.04870430441625406,-3.0942943213947838,-0.004395149948333414,-0.649943558749728,0.31371702821629976,0.006477672496445785,-0.035480482274450824
1628184915551920466,623534.2985394931,4848829.812740058,154.0877805527745,5.230890303831471,-4.813281702465047,0.01834578132743306,-3.0844567388438113,0.0056877224111805775,-0.7245693031602004,0.2850662306400802,-0.10544928262828313,-0.002519616126115641
1628184915802043910,623535.5810931149,4848828.564253148,154.09730928814918,4.965398620148815,-5.205994589082877,0.07863292045336799,-3.0898749969114614,0.018167876465172105,-0.7940014731258288,0.2636133532233485,-0.013451163880671982,0.03256084416095211
1628184916051948208,623536.7897448086,4848827.204361399,154.12265546148754,4.744575363458825,-5.586502605264114,0.08089700711433441,-3.10155108676098,0.010055123985984082,-0.851292883993211,0.20600486884417615,-0.008020892982906258,0.03859626220490471
1628184916301995247,623537.9484200068,4848825.773412256,154.1347788601017,4.523622270232419,-5.835747805096189,0.018233088204550857,-3.1132454405713728,0.010129307316216599,-0.8929486698868879,0.1309803350307963,-0.05968837094322424,0.01978297630080535
1628184916551880109,623539.084789932,4848824.291360079,154.14095362658685,4.544434619478797,-6.015833294149629,0.06122799422109264,-3.1210741514069396,0.015478734425796191,-0.9207760602229468,0.09049462062461541,0.007401532166568677,-0.014977430389913787
1628184916801992347,623540.2337968858,4848822.777742266,154.1583213489306,4.579244003795463,-6.1724363664533834,0.06623643123929956,-3.1130319640869906,0.018302350820058457,-0.9386985843460333,0.06269735207362441,0.012961673538737258,-0.024317293289235136
1628184917051946288,623541.3931884809,4848821.224608574,154.17849645683336,4.673819631153632,-6.342385634598394,0.09110215285407915,-3.0975754585129613,0.019004228996933867,-0.9527355116306254,0.04584649489418779,0.054245005178285295,-0.03349772852922886
1628184917301757238,623542.5624916725,4848819.618388114,154.1976870303778,4.663968632799581,-6.592951314260815,0.06875766680451917,-3.0842393717286765,0.013275832878749989,-0.9607245346500451,0.017363830970589297,0.026983332749212705,-0.009528782218831919
1628184917552011285,623543.7472489374,4848817.962160296,154.20654174000435,4.767772121263876,-6.719396623074038,-0.0007838645149798595,-3.077365880180911,0.00710535709304975,-0.9615293653383612,-0.0192467352612709,0.023515970336903756,-0.003722769393875054
1628184917801937966,623544.9515512632,4848816.265978327,154.20525473662533,4.863211695658992,-6.852919421156516,-0.022579002302765883,-3.0781926676295503,0.0038483118391752467,-0.9563056168613421,-0.02179669926144977,-0.003356685196047241,0.01943066829130813
1628184918052010055,623546.1849948411,4848814.541523722,154.19900939679357,4.976510991758172,-6.936487165178218,-0.03397491217756854,-3.0831543998751036,-9.791072768377801e-05,-0.9495419030739373,-0.029858774513818832,-0.035838047080226115,0.06721540150677749
1628184918301923117,623547.4432827642,4848812.814254366,154.189832164551,5.039256508387982,-6.911230376651226,-0.05132254231773825,-3.085666538542054,-0.0015654518351050975,-0.9412521127046393,-0.03691248427712507,-0.014568625624463087,0.010273126179457213
1628184918551970968,623548.7276159625,4848811.089499043,154.1764965207292,5.239376358261935,-6.876588635518923,-0.04513684525967354,-3.0882773905561813,-0.004664305162313581,-0.9307679556600807,-0.04663106514039934,0.06778224040745393,-0.013239385355651423
1628184918801953671,623550.0398920787,4848809.385865496,154.15961859558467,5.195882432508587,-6.772760150232701,-0.08986915642133597,-3.084677095772284,-0.009273318248289718,-0.9179246183299761,-0.062212750299270404,-0.06053408116534275,-0.0010018453315052559
1628184919052069171,623551.3619232158,4848807.7052446995,154.14091925108488,5.336107549238188,-6.6868086774097435,-0.025552207620107237,-3.0910956336514794,0.002643155339034617,-0.9015093605056462,-0.06888127590616054,-0.011529710726087602,-0.019140559761784193
1628184919302071517,623552.7107881403,4848806.039697124,154.14449127002604,5.442645365157062,-6.563600960328479,0.0014276495662631228,-3.0980511839652203,-0.0028022467430549062,-0.8823169963378219,-0.07761850094689353,-0.028314174213903823,0.06601252051280479
1628184919552228889,623554.0883995097,4848804.433014823,154.1379909017396,5.492539591874502,-6.319644038386845,-0.016906192456459745,-3.0977843636329228,0.0035014440418464758,-0.861676832625543,-0.08878331484859237,-0.08348017846874592,-0.05384607833380448
1628184919802241079,623555.479119486,4848802.866908882,154.14663430784933,5.639431988470102,-6.1778382775070675,0.09038977728726386,-3.102854717212635,0.015987613947689407,-0.8407651938199864,-0.07909912760325535,-0.010557795647397054,-0.012072610312273153
1628184920052159662,623556.8977832588,4848801.330359465,154.17312595301456,5.717010570626519,-6.064790048362345,0.08226139155498627,-3.1074306597737853,0.004524564925527394,-0.8201383153917294,-0.0804656832225125,0.002948248861800943,0.11312985451834139
1628184920302127636,623558.3309049496,4848799.862672488,154.1801384050552,5.696651830848473,-5.769349430741953,0.005880220500780631,-3.10030617757498,0.0063083741518581305,-0.8007886242192521,-0.08273330366235684,0.03479932592119798,-0.06692780194000122
1628184920552085717,623559.7720333316,4848798.431522443,154.19029491488945,5.813874523550017,-5.717545122313352,0.0941379087455557,-3.1008126417330653,0.013348784317967023,-0.7828424345095011,-0.06906116096757564,-0.043655124044746356,0.07358024897162982
1628184920802213802,623561.2267436198,4848797.003831361,154.2076704906175,5.869348920884101,-5.591202518958831,0.037798456024299015,-3.1087757485839416,-0.0018995414710170683,-0.7673722833698232,-0.05558062313675222,0.08180424873154028,0.040659073805102745
1628184921052119056,623562.6865072268,4848795.645720107,154.20902720096333,5.800818759918022,-5.350225959219404,-0.03117830924343519,-3.1088584385621623,0.01146845612847148,-0.7503489448995946,-0.06921262398526144,-0.10526624729889217,-0.03072851386913292
1628184921302151322,623564.157910897,4848794.3006721595,154.2192067071956,6.012496153814732,-5.328942913916367,0.11171083612641972,-3.113127318285776,-7.21857451257171e-05,-0.7355800485262535,-0.05839248392007581,0.14583330876946649,0.04998939872939298
1628184921552155229,623565.6218979452,4848793.006383743,154.22366249943727,5.7208055133274645,-5.014985021779264,-0.09957468067217917,-3.1152734974309655,-0.01306452449449025,-0.7212274552994812,-0.07087694530211965,-0.13081123576446163,0.038037690506174525
1628184921802306115,623567.0553279334,4848791.78711218,154.19696844229142,5.750699706712036,-4.715543791510335,-0.024892081186161347,-3.1202064338374247,0.001009504886085809,-0.6993378453404212,-0.09781588832494037,0.02823715891556946,-0.0006590989786906128
1628184922052394414,623568.4862260799,4848790.643918202,154.20041051416283,5.688842356903295,-4.405733188495837,-0.006401553650753622,-3.1163588674960447,-0.006092280834989477,-0.6753047175962439,-0.09200468079325311,-0.0008490201410539099,0.03311781532157505
1628184922302505021,623569.8868204848,4848789.5801862115,154.19154655664772,5.532908615804873,-4.070114043831548,-0.03933772120306725,-3.115678530700208,-0.004279105879837013,-0.6493314392838369,-0.13076448218903497,-0.024371463485999043,-0.03656491735344033
1628184922552337499,623571.2511157227,4848788.604730877,154.18747242701943,5.3953092387238035,-3.668165976714749,0.006136811532138339,-3.11896458917949,0.0002236790934864027,-0.613036445519551,-0.15314375857825133,-0.014445719149241308,0.006268067379273652
1628184922802501060,623572.5920646555,4848787.741836815,154.18967509910115,5.331533561515858,-3.232106741752128,0.010005480914773296,-3.1162918857336637,0.002603429727959942,-0.571382859611724,-0.17634789221986366,0.0032021359256922508,0.02968883076912634
1628184923052384431,623573.8989864173,4848786.977159795,154.19598361048173,5.171943905991517,-2.7713822887225046,0.03334321049269039,-3.1205910140577005,-0.002859421193394497,-0.5168502381998636,-0.26475909414004967,0.016525579730836685,0.013894747620105737
1628184923302426202,623575.178886588,4848786.361723895,154.19404704078622,5.060637340864075,-2.142670514652119,-0.03369866857184538,-3.119363863678508,-0.004834298939222102,-0.4414927564345721,-0.3371228867909069,0.009368982405651621,0.008297202826084007
1628184923552317817,623576.4197380624,4848785.896179697,154.19048454938104,4.863520550587085,-1.4876278858869305,-0.004989673716904314,-3.1223204818126544,-0.009819834231510928,-0.34873081721467714,-0.3886853118156749,-0.007387855570560537,0.003375683426440675
1628184923802243509,623577.6041865052,4848785.603189632,154.18161924033265,4.59445772268841,-0.9007300127077683,-0.06786768486299771,-3.121184233907309,-0.010430305114945582,-0.24286787691714323,-0.4559129157273723,-0.0025451719337988925,0.05688341191088552
1628184924052205442,623578.7182182209,4848785.449123329,154.1691476758182,4.2966281427757185,-0.2463344369492599,-0.006345152107675042,-3.1291989515699847,-0.012848219303787727,-0.12422189802012099,-0.4887838836919371,0.014977359590928524,0.022168362902965446
1628184924302303291,623579.7476884588,4848785.4586793855,154.16553504681153,3.9187636338466434,0.33306639621527095,-0.065086850010243,-3.132833325906285,-0.011971371991064862,0.004826305688349601,-0.5496932807861082,-0.046819670512230446,0.02458140160925553
1628184924552246493,623580.6976125818,4848785.604307883,154.14491012886532,3.6228038910049207,0.9078332357268224,-0.048295725942903316,-3.1402276454597984,-0.006764861919989865,0.1527968955970308,-0.6253517762939619,0.004495563726369895,0.03256301292739627
1628184924802337543,623581.5660262008,4848785.909294078,154.14071155550985,3.2862879631373283,1.523973520503858,-0.031182911954070004,3.1411264557083056,-0.011082076673828416,0.3157629777002373,-0.6775123885064843,0.015912320729788005,-0.02348968273130181
1628184925052334261,623582.3437383639,4848786.343131727,154.12683176751307,2.894027711541108,2.0028927950216775,-0.06089899288268965,3.1333467798233348,-0.01232110952685554,0.49364612317524814,-0.7491010508538039,0.026501473774108147,0.07206769305891236
1628184925302101129,623583.0002188926,4848786.909062878,154.11749363646837,2.2939014445414863,2.5291445320509913,-0.03206884430447621,3.12776894062512,-0.015655242653128044,0.6863672295182456,-0.7856909671859044,-0.0053585957443118065,-0.008159717242763015
1628184925552523085,623583.5043440034,4848787.595064942,154.10561986413978,1.7226964358812875,2.8585005800130796,-0.066964997247005,3.1338369431964557,-0.012811695120193398,0.8794582372753983,-0.764768087757127,0.001766749033385128,0.017958832021472755
1628184925802504954,623583.8843068217,4848788.330696784,154.08834688810734,1.1815939132829336,3.080857018935073,-0.05982157150482023,3.1250553308251616,-0.008738147433264641,1.070236655793954,-0.7456861099007864,0.01083375184818362,0.020758192724212764
1628184926052669958,623584.1044544278,4848789.130640223,154.0778683105512,0.5337927006876648,3.2676013455497706,-0.03288383568695967,3.1238034601104077,-0.01263879252444983,1.2572161015664856,-0.7467294586006928,0.012657538120159432,-0.04344086466204649
1628184926302584357,623584.1685316617,4848789.950200339,154.06569410079425,-0.04520304053231844,3.2495801531997612,-0.0534735344595141,3.1230046041037336,-0.01606630357123951,1.4422465729185237,-0.739710804587569,0.027774422727069297,0.002849204413699885
1628184926552199979,623584.0921467651,4848790.762780397,154.05476767525855,-0.6106668178586605,3.252055498907193,-0.03738336718685707,3.1167435757734285,-0.01601208072298272,1.6291784525847717,-0.7532033457863584,0.038737109577055874,-0.008529299963457618
1628184926802187632,623583.8655955073,4848791.564010797,154.0447240478754,-1.2347602521946488,3.1370741068450076,-0.04665012182951507,3.107304848203584,-0.014786954421907705,1.8201163408783425,-0.7764060495635982,0.03482373667244266,0.011994499807999286
1628184927052143855,623583.4720096375,4848792.326263404,154.03110860192368,-1.9519281197997689,2.91432808206591,-0.06119038641390176,3.104090992466725,-0.008442792521417759,2.0174370924443505,-0.7959597846399281,0.0042372617738140805,0.01418837098215291
1628184927302179162,623582.9053117429,4848793.02797076,154.0183223124451,-2.5784701164267556,2.628572077820288,-0.044755677810553854,3.1003082844396554,-0.006257570591478521,2.2217562214149345,-0.8301034145519803,0.02436546834503624,0.005896147139030781
1628184927552245589,623582.1787309992,4848793.627381072,154.01213709039183,-3.2364159313161434,2.1143967297503807,-0.012340193883736833,3.100925957409673,-0.0014223947860642887,2.42774745445837,-0.817059757337404,0.0019053053810963896,0.027868540879979024
1628184927802274669,623581.3068244107,4848794.109698178,154.00515971692607,-3.735529048183129,1.7177855606479657,-0.0392695212699538,3.102675820715885,0.00629416132156651,2.6172069193409424,-0.6782469975121218,0.0469310288363856,0.014172056978725044
1628184928052415232,623580.3112537076,4848794.494991041,154.0047433246043,-4.247440020620291,1.301134211057379,0.032769235963505436,3.101496201007234,0.014409781688638131,2.767033406321588,-0.5239743146955295,0.014030584704294415,0.01274719928152458
1628184928302758210,623579.1973175558,4848794.784018546,154.0094396194898,-4.615422394384604,0.9812805400182549,0.002723394405808696,3.1092439782896197,0.015420541468408756,2.8791469514932877,-0.3670148631582328,0.006848542722338623,-0.006908120703786868
1628184928552770337,623577.9966630742,4848795.009798681,154.01725661664148,-4.953559072438742,0.7219889907927428,0.05503557482672557,3.11357257553738,0.012872089493506784,2.9528035585289145,-0.22619373603801007,-0.03491231941180351,0.042763301363450586
1628184928802949236,623576.7289553331,4848795.18026253,154.02668366091558,-5.155795081028765,0.560614199734855,0.02652695445773219,3.1285798709235264,0.01279394543750596,2.9930026899844933,-0.10327658858918778,0.0016243849286129578,0.10560518142809541
1628184929052655263,623575.4195347222,4848795.343174181,154.0328925207196,-5.398453408393135,0.6653151268866656,0.03889346103918433,3.1384390516097116,0.02277723715269125,3.0037143061549636,0.029337605156259588,0.027478016067926752,0.08045749915517338
1628184929302646920,623574.033671457,4848795.544186693,154.04669259095635,-5.692200674697036,0.8918809497471859,0.07516962648008763,-3.141591165988122,0.021333685456903152,2.9847201592636172,0.12111725977777871,-0.01291572508694379,-0.08222842798621639
1628184929552166646,623572.5867444543,4848795.809670096,154.0670658936709,-5.854101651080382,1.247827051287013,0.06569742418685416,3.140052571478614,0.013121178123936181,2.948475282768234,0.1555613949559787,-0.02011435859941774,-0.04248059351291148
1628184929801909063,623571.1112079916,4848796.156612964,154.07487851381254,-5.982757048991024,1.5735101901962714,0.007823535067632878,3.1308500471540412,0.014554902198838277,2.9044029045085007,0.2040323621867263,0.020923946800268493,-0.013829042442665293
1628184930051913706,623569.5955340766,4848796.583825029,154.08391128671605,-6.1259421545543455,1.958165111748363,0.05111980481851992,3.1322303219968997,0.016835773017087125,2.849940056259964,0.2238906523440424,-0.0007324266788935889,-0.0006032902449780034
1628184930301907702,623568.0544538564,4848797.127116335,154.0949025213783,-6.21020044571319,2.466979231866347,0.05304043879798234,3.1268632409855175,0.019183819306286157,2.7885643032393586,0.25188228263294543,0.014609835597589185,-0.023545778606450463
1628184930551893780,623566.4816094092,4848797.791087535,154.10937900525798,-6.321645634349019,2.9195028100349223,0.04938814486519126,3.1216232749573725,0.01418511799342175,2.7262954529713324,0.24448574043730587,-0.017919688713341198,-0.012192402943523343
1628184930801846393,623564.8920734152,4848798.567834288,154.11771043525894,-6.337717630069182,3.374817921671916,0.0032190702179032415,3.1221659379880076,0.008906637352549093,2.6688788902788474,0.21947145448148786,-0.0076183713614950315,-0.003998279422602792
1628184931051800807,623563.3022612982,4848799.452638172,154.11672604647924,-6.333636533018362,3.7633880689107144,0.0006119422238586164,3.1228807220323898,0.007294494329383705,2.616584106137014,0.20097774808121682,-0.00484070203268404,0.005236684306996758
1628184931301785030,623561.7220904047,4848800.430517307,154.11720797820033,-6.265595519294099,4.165708347372508,-0.011355900058323057,3.127029657554527,0.008476086542079193,2.568442173253349,0.19426753410554243,0.010652403745522638,-0.013966543059103236
1628184931551859703,623560.1515459606,4848801.519299802,154.11484058270972,-6.212699328193333,4.591732581191743,0.007261795871241303,3.1246628895459905,0.0013846271493403956,2.518437822186452,0.19806320793800736,-0.05719916430104519,-0.03169704593992142
1628184931801911144,623558.6294579757,4848802.706687201,154.10619179755176,-5.997394923660592,4.991745925579621,-0.06948645765902481,3.112369267281858,0.0034018772508124353,2.465707886555217,0.221476393487571,0.05510391550162415,-0.02009216976769267
1628184932051865593,623557.12950156,4848804.000051598,154.09497623674812,-5.908941592383766,5.41253531753061,-0.01516844203179371,3.1133172653323924,0.0006745537373112237,2.4114602407652432,0.20709306281094392,-0.03297649012806536,0.001068345285895673
1628184932301763103,623555.6855541307,4848805.382878748,154.0873838863283,-5.6571090369387855,5.709915574253779,-0.04382918434526728,3.1160448570379327,0.008766637241747104,2.357110229685327,0.21338954498987905,0.024197300085151335,0.041516960873414
1628184932551817321,623554.2824656721,4848806.854031778,154.09554797716194,-5.5050829752255455,6.1256253107326675,0.08890476204790339,3.1332017906619196,0.018517313198768977,2.308049390925846,0.17396384581297605,-0.04433348873966375,-0.005225642469374448
1628184932801880915,623552.917238649,4848808.428548639,154.11569666662842,-5.362256631166943,6.48446817462288,0.07483173008681154,3.130849673913989,0.007855092716749917,2.2659890211558404,0.15460118666870057,-0.02317245100673596,-0.03650112740795308
1628184933051847045,623551.6102667381,4848810.060706861,154.12324908687066,-5.054410043927306,6.646230780604628,-0.009313941127388065,3.124857091771376,0.009404156880469226,2.236571079638681,0.1026475139118496,0.06520790262112595,0.04076100918303003
1628184933301956698,623550.3442805721,4848811.743666768,154.12930202116044,-5.0762303725503175,6.911439406402368,0.10706062057701415,3.114399000546636,0.016053570560635614,2.2141001939266713,0.07357375410635936,0.0007969496381687061,-0.05572332177374499
1628184933551965052,623549.0722363639,4848813.473193116,154.15144612326117,-4.958215516117704,6.934162499677873,0.020615041846106213,3.1101721233638084,0.002451374273073809,2.1969765498657243,0.06924579715994764,-0.00274007032838246,0.00287412961463931
1628184933802002361,623547.8446563906,4848815.203940301,154.14846142890534,-4.8552624630003205,6.986915443268985,0.009008864737086064,3.110758905721241,0.009236605574995437,2.1807743282848513,0.058745131214230445,0.0007715753108719467,0.014330531555546753
1628184934051906904,623546.6301239668,4848816.960864773,154.15806006077636,-4.753166431710009,7.09609189068663,0.03923957861653779,3.11148927586161,0.003975929687514968,2.16675235130401,0.05896885689484332,0.0017713209509390452,-0.005799404991921116
1628184934301992554,623545.4473576994,4848818.72938378,154.15906408177312,-4.665560177040352,7.086418917693532,-0.02362322021495275,3.1096353154717917,0.001320988557444628,2.1549391059890204,0.030864087448440564,-0.009621519792206828,-0.002653890282136379
1628184934551871382,623544.286722831,4848820.499616099,154.1533557390055,-4.580081985933349,7.112883779296092,-0.027956967045770886,3.1047690483897017,-0.0009161211361262675,2.1502551149569578,0.00913571823803345,0.02487758990239785,-0.01563199731419242
1628184934801921775,623543.1271178426,4848822.260516917,154.14501974017384,-4.594810793842518,7.0361937387430835,-0.047195329005787434,3.1010078794530758,-0.004143560704645665,2.1550917010846797,-0.051270170790596904,-0.004028630196970221,-0.005026904113275471
1628184935051958434,623541.9591104626,4848823.992546352,154.1306909748793,-4.719487374693393,6.8423732269974415,-0.053594987797581484,3.091957299247498,-0.0054069601366187325,2.1747174147963997,-0.1130921589363405,0.0028882081423953084,-0.0015588339864991776
1628184935302083936,623540.7462060604,4848825.671718409,154.1158900907096,-4.953331627261401,6.621165376939908,-0.054408760512145715,3.0898532652335153,-0.004669758649516568,2.2087166790349584,-0.15186387577461333,0.006812006128410274,-0.01902588844090959
1628184935552126955,623539.4739201934,4848827.28802055,154.1040179134215,-5.169122393220882,6.320063069371192,-0.07613739895212429,3.0872750107219966,-0.008152404238556302,2.250369822400271,-0.18750899743096253,0.0076271153957137485,0.005180903716305657
1628184935805091337,623538.1228127083,4848828.850483195,154.08029997014813,-5.49529483910681,6.037969347927913,-0.07577217001874997,3.082602191934815,-0.011418678612232946,2.30049431081971,-0.20092197897941683,0.0023018140248210707,-0.04180205636149616
1628184936052165368,623536.7363395349,4848830.286411126,154.06024170400218,-5.661513932031026,5.585731620343077,-0.08750990194999442,3.085033299585081,-0.008189347723434649,2.3544749537931455,-0.23403001881022784,0.06822515625011574,0.10655807940832551
1628184936302155148,623535.2846861666,4848831.632860947,154.04661602446038,-6.0689142632157,5.197149532734366,0.02199321894269085,3.0843821489822156,0.010932112699229639,2.418736741565812,-0.2789248774682623,0.004576204671387133,-0.019334854232847136
1628184936552146053,623533.7190230687,4848832.87248456,154.07155376511668,-6.354161628450513,4.6763620682979905,0.08682802846942081,3.083963655409708,0.0052985802774730235,2.4960063759366395,-0.32725809526669664,0.013296627683837367,0.004223399609954176
1628184936802893088,623532.1009780492,4848833.9598667165,154.08610059973086,-6.66464498671409,3.8887225048392695,0.10593425254318417,3.0824067087872646,0.01828146304235256,2.5803827490426015,-0.3383546234382205,0.0014412490766712585,0.15504128581343038
1628184937052324279,623530.4230610611,4848834.884963173,154.12442241146076,-6.886548849817819,3.368104583447876,0.19960148582903284,3.088683753028401,0.028066686029983343,2.6636862184540004,-0.3106510889038447,0.029110480080396548,-0.009329492369113443
1628184937302452646,623528.6768960368,4848835.6653894,154.18022815805057,-7.050938789863203,2.8410529267432456,0.19669046637772142,3.0896436022322744,0.02728574781610152,2.7400258506229527,-0.32125201302022943,0.04446788797181693,-0.0916676696276835
1628184937552432383,623526.8799860813,4848836.314771153,154.2220521968306,-7.246550202218494,2.3403919396177435,0.13935888092713947,3.093556022732765,0.018825053748583204,2.8152842167638794,-0.29059654046347644,-0.045578828685793694,0.03258333585642144
1628184937802496577,623525.0400526425,4848836.832441403,154.25061818101528,-7.492095266135253,1.6917498153018087,0.07528233075772897,3.0974750249104375,0.018983535959247747,2.886559490477837,-0.2878980179253683,-0.0009457999923116528,0.06376150213852289
1628184938052569320,623523.1365138323,4848837.219519768,154.27563941757015,-7.705050175442844,1.341993339132876,0.10631876358005571,3.1041093100097426,0.018584471822247667,2.957267085875683,-0.28275165009356457,0.018778368014165516,-0.0371293972540351
1628184938302475867,623521.188293052,4848837.486560042,154.30139581566982,-7.905385916525309,0.7239029774987096,0.11086345226725236,3.1040218362401797,0.020796033803883004,3.0239852861718104,-0.2596591462499835,-0.01138675424669207,0.08527147396570192
1628184938552612962,623519.1953132197,4848837.626192602,154.33202892856627,-8.012878461582227,0.29752184947410804,0.1453247863155527,3.109450322961241,0.023898989861289105,3.089196645354696,-0.24874969383683954,0.03760574598770316,-0.06958692762799615
1628184938802517909,623517.1827034629,4848837.639797753,154.372043802596,-8.165800557837299,-0.2415429980430867,0.19854446105935614,3.116114171604474,0.03569945408884177,-3.136563897507002,-0.21612060876275485,0.035576798138401804,0.09993269896254099
1628184939052516004,623515.1039761583,4848837.544418116,154.42937754359943,-8.406273985621414,-0.6088118543517463,0.20146059250733586,3.123543055460358,0.02791561080433343,-3.0880333345527675,-0.17081148898626883,-0.0865737790064598,0.04821767334410006
1628184939302459180,623512.9907884529,4848837.36340437,154.47192891846524,-8.469911114136352,-0.9104670710725072,0.08501766925818091,3.1292162493915527,0.019158156347690466,-3.0487237546353123,-0.14492427726013285,0.0001718414378992001,0.028307136216509685
1628184939552472335,623510.8568838243,4848837.112512832,154.49420846890902,-8.57241234613442,-1.244819091346803,0.15159037653431734,3.1280621846013412,0.019831940347879377,-3.0149320069282837,-0.12235850976113173,0.06244006733838938,0.09710576542577723
1628184939802498097,623508.7008660086,4848836.779642711,154.5258353683785,-8.781911258681415,-1.5142243682911745,0.17611232814818795,3.1296963417940447,0.030055149560397912,-2.9819026724679807,-0.12272770771399999,-0.0791446452929847,0.01216355178151682
1628184940052673360,623506.4764911153,4848836.369882059,154.57548932034183,-8.929150752601215,-1.7500875735644397,0.15212901512529772,3.137574538711977,0.02116179171370397,-2.9572055819864227,-0.0794850926342666,-0.04149625920566965,-0.06661216748646184
1628184940302708579,623504.2389413015,4848835.907722512,154.61022488689372,-8.977241286842537,-1.9546365366794423,0.13127083723257316,-3.1351935003122953,0.022316086469454176,-2.941425488199157,-0.06001185093630401,0.08463298875615452,-0.03162355765600344
1628184940552500122,623501.9863261058,4848835.422635752,154.65235888813967,-9.127309101226,-2.0564901379277734,0.2245531852031012,-3.135244287625205,0.033070266904857266,-2.9303471652987714,-0.019026318879667582,-0.017578608185187077,-0.033410438396858866
1628184940802559523,623499.6727725696,4848834.903353693,154.7117204672548,-9.268350302098927,-2.1422221008030853,0.20445657058406808,-3.1335315655621176,0.02166312647490169,-2.9213603484581103,-0.028222814485807938,-0.04852989108297322,-0.003992607552845376
1628184941052648718,623497.3486157771,4848834.364077776,154.74636243813177,-9.271401339364504,-2.240644503554023,0.09774349483087683,-3.134810386751167,0.013705847156546012,-2.914454815827472,-0.025318311158279448,-0.03711615419740502,0.025961042516363754
1628184941302624642,623495.0248173209,4848833.8096737815,154.7653598707865,-9.262406798398988,-2.2515494062105925,0.053782574016225104,-3.1361677135479478,0.006460010327819532,-2.90835542281136,-0.0215527875330715,-0.031322543104006444,-0.062298772617858184
1628184941552605639,623492.720084808,4848833.244033783,154.77530230886143,-9.155254684716876,-2.3398585455648666,0.03133323632227723,-3.1345132631884174,0.005793479316073794,-2.9024285424679324,-0.033137535059013755,0.049178280136450356,0.014488889654115966
1628184941802802919,623490.4343180475,4848832.6604141705,154.7875633055901,-9.117953908982534,-2.4303797638183187,0.08404077753211514,-3.128110028062935,0.009828340193944483,-2.896028615437511,-0.022095619800284762,0.015553392125047007,0.04992128414680734
1628184942052898755,623488.1633173395,4848832.068654392,154.81053714366445,-9.048654244955587,-2.4102171047076926,0.08675483657016701,-3.126091792782594,0.013403442629641951,-2.890592511516746,-0.02191638799617962,0.013983885827175805,-0.04378723408793958
1628184942302753408,623485.8997450091,4848831.476137014,154.83753289880113,-8.973066648729464,-2.395588171180281,0.11560336821506587,-3.1326302480948867,0.008113587557118896,-2.884705069634309,-0.024993958968105738,-0.08704952007696644,-0.05851403156616778
1628184942552743988,623483.6652618075,4848830.877770417,154.85528630717386,-8.897351586707234,-2.4663192799490634,0.06765759268822746,-3.139216168298186,0.005871438972820191,-2.87646361390531,-0.04243631949639162,-0.04867530622729318,-0.08569606418196418
1628184942802839400,623481.4496719041,4848830.25669509,154.86380742210693,-8.716935796355942,-2.5855399116035853,-0.002411876493759707,3.140990458890603,-0.0032771107644149564,-2.866550570104908,-0.04768091481165072,0.019012764804846705,0.08456264613173113
1628184943052602075,623479.2972395046,4848829.630689399,154.86050602216912,-8.576139830247925,-2.5250440978752753,-0.002093363597826206,3.1351532147631658,0.006280042629240601,-2.8559858246754226,-0.03060552777629085,0.1419682528716031,-0.0037935866148007752
1628184943302590628,623477.1510192201,4848828.98264748,154.87093369765094,-8.552139319659593,-2.6372567961972173,0.07707982731788977,3.1316779171150713,-0.0001037059880395335,-2.84869123963857,-0.01888166439349529,-0.06156603376492913,0.07185580127526213
1628184943552588513,623475.0448588079,4848828.325275033,154.87330794458225,-8.288285816831795,-2.713254563540182,-0.048746515893992294,-3.139420839111575,-0.0017344224661822623,-2.843968746489951,-0.008231043766825787,0.03529026336186448,0.05051759374076068
1628184943802604789,623472.9691752433,4848827.668691161,154.86737520708544,-8.312580536937114,-2.6361920505966183,0.040925084329973764,-3.1280825980624614,0.0013506040538533866,-2.847474217776386,0.05136813381121299,-0.10230559358901424,-0.04412252667427868
1628184944052614859,623470.8865284788,4848827.0498123905,154.87055786335654,-8.31667615419917,-2.3523631720439733,-0.02345328282466745,-3.127944647249722,-0.00449426594514239,-2.863118618801263,0.08016725455729598,-0.038742886013868584,-0.05073451772192711
1628184944302661326,623468.8180418642,4848826.487652891,154.8625666684556,-8.247959723250837,-2.1814564088538857,-0.05922838995543959,-3.1315486023384977,-0.004527229709751346,-2.8869841403856267,0.11128587696612552,-0.01750450279407137,0.003171850658848693
