GPSTime,easting,northing,altitude,vel_east,vel_north,vel_up,roll,pitch,heading,angvel_z,angvel_y,angvel_x
1631021758565325787,623425.3227635112,4848820.516226712,154.0294581803154,5.101412940750245e-05,0.0005687885954042595,-0.00046680406344745847,3.1215152051334,0.02289566245341307,0.22930706021061692,0.003372768795846054,-0.007472438473086075,-0.0025380507679533325
1631021758815050540,623425.3227730645,4848820.516235377,154.0294589718472,0.0016794673695437236,0.00016616399034828235,-0.0012028998364734117,3.1215321583602007,0.022913367124140376,0.2293242136236906,-0.00023635553940254335,0.002454892466122229,-0.0010623657452028114
1631021759065355126,623425.3227984891,4848820.5161774885,154.02945397522768,0.0015448840637761858,0.0019084195840210567,-0.0019469188206311526,3.121420939315632,0.022961562029325856,0.22930769204099963,0.0010038511785069142,0.005534402114875309,-0.0007093400456559912
1631021759315414970,623425.3228133096,4848820.516186368,154.02945460814274,-0.0007162865454516949,0.0005875796860351949,-0.0010210080874208055,3.1214385369733373,0.022989795203834918,0.22932584484075857,-0.0009863607411695324,0.003406817174247801,0.0037572262623883686
1631021759565847923,623425.3227974083,4848820.516186036,154.0294545891458,-0.0006281224698711867,0.0014008144524510476,-0.00011937452981261832,3.121435037191247,0.02295986473091776,0.22933951356550633,-0.0004982367785273835,0.0035676448962160133,-0.0025395440776893414
1631021759816009562,623425.322787387,4848820.516187691,154.02945506651096,-0.00010983880512954166,-0.00031979065674099836,0.0001323264909979395,3.1214425231783536,0.022940030673346667,0.2293149415982756,-0.00014973289991389026,-0.001015088947951328,-0.0029051947629675405
1631021760065827660,623425.3227860342,4848820.516241876,154.0294586053678,0.0005274632988601213,0.0005966456413357764,-0.00043123011612663446,3.1215430001302287,0.02293566898215004,0.22934071135961637,0.0007879441759968925,-0.00467946620179958,-0.000813870466201936
1631021760315741298,623425.3228036703,4848820.516173626,154.02945330395028,0.00030945939035046787,0.001830851578360587,-0.0007616987381082661,3.121412071861594,0.022967385119246928,0.22939090329153244,-0.0018867695914218721,0.0004994270987397179,0.00016553368965418257
1631021760565646851,623425.3228063636,4848820.516243299,154.02945876334442,-0.0013538147918543846,-0.00013914900338373403,-0.0004670255073351648,3.1215484930363147,0.022974453991180307,0.22939401503404894,5.240631146634361e-06,0.0033320460853527834,0.002980269506485578
1631021760815475500,623425.3227235056,4848820.516209066,154.02945726878178,-0.0036316158670360037,0.0024227964232072267,7.01373043446146e-05,3.1214811435921592,0.022818318236964393,0.22938137114239962,0.0006106013400689214,-0.004983839041821582,-0.005130376111544543
1631021761065298634,623425.322673122,4848820.516182735,154.02945569645055,0.004058472951386217,-0.0006844177046632879,-0.001409004885044096,3.1214329742617584,0.02271881764488408,0.22938379639243717,0.003564536130620664,-0.006231741744429327,-0.0010894613153233808
1631021761315247695,623425.3227488599,4848820.5162366005,154.02945907261898,0.004309663550688248,0.0026952437456664617,-0.00043811261739733415,3.1215352452840195,0.022861976534277323,0.22940737284552984,0.00029270045000304596,-0.00043578734008958896,-0.00041605648047452273
1631021761565358788,623425.3226946915,4848820.5162748005,154.02916198220967,-0.0016402570441672406,0.0007825284861681886,-0.0022565592632173975,3.1215140345321704,0.02313020449604299,0.22949359314592607,0.000922208914745864,0.009435244492913832,-5.746550098033529e-05
1631021761815486322,623425.3238202131,4848820.517513965,154.02887898801134,0.01519217284439206,0.008018902468561892,-0.0041773137350521825,3.1219836226433966,0.023493266309864435,0.2294820169091889,0.0016328413566745143,-0.001250864562463805,-0.005394690398986372
1631021762065974382,623425.3377748942,4848820.521452652,154.02777255468501,0.10169904696046575,0.019708977053802104,-0.0036520382399479606,3.1223824173226857,0.024584619886538712,0.22868010395995125,0.004219884186502058,-0.009528495271792038,0.0002746481621211991
1631021762316209889,623425.3760440052,4848820.529432716,154.02971819587566,0.18198297674954397,0.04604107419014138,0.01876640399798741,3.1221884252894294,0.023819644081954656,0.22719491676229855,0.007859522332817033,0.012494625033044745,-0.007234203762311701
1631021762566039070,623425.4250556191,4848820.541249389,154.03158418424727,0.2239293334128489,0.03917526360517458,0.0056085504454225985,3.1230802055611853,0.023101729007855898,0.2241518433205732,0.01524345659556943,0.00812379052283664,-0.0035267520128869647
1631021762816242706,623425.4921232521,4848820.552358377,154.03247993970936,0.32549588913647254,0.05805112503133934,0.0032769390451859283,3.122863852861854,0.023808123745417936,0.2182533678729495,0.032823639797984194,-0.002596124859540682,0.0006953681642806932
1631021763065907342,623425.5851022382,4848820.56931739,154.0358714909223,0.4059979197388132,0.0724408125261258,0.0189649581420828,3.1233891763684296,0.021999726009359885,0.20913094257352374,0.04096267414134186,0.0033987020336617105,-0.015390797468979667
1631021763315757012,623425.703603654,4848820.588617314,154.03666531972783,0.565003715556464,0.06988588804059345,0.0012079600432478108,3.124531158135995,0.024233412203164304,0.19532460063391016,0.0633554957628865,-0.0024782369489074196,0.0004779107108872235
1631021763565581375,623425.8768449333,4848820.612066297,154.03809493777644,0.8403421083052669,0.09871705855071042,0.006535310878320023,3.1254268886335494,0.026095159598043774,0.17572797421300185,0.09771827660552737,0.0005827539062630386,-0.000776393507838272
1631021763815441102,623426.1322513234,4848820.639826201,154.04161528605866,1.2166841516821216,0.09891071892536521,0.014668189029373571,3.1256294051250912,0.027091885245693614,0.14897942555786198,0.11702676827637733,-0.00044106180639873275,-0.0020184441135393605
1631021764065433600,623426.4840166622,4848820.670166032,154.045692867731,1.616116719174801,0.09134551291066102,0.019866123258873415,3.1253884242046444,0.02678657282059847,0.11705198451823265,0.12760343122968407,-0.0002528145899561593,0.0031487902626516273
1631021764315612096,623426.9359312186,4848820.692306032,154.05288222424676,2.0033684310100752,0.07602606653743302,0.0330599954936301,3.121718235661106,0.024663603319811763,0.08641033068583148,0.11491411789482528,0.002393859920832899,0.0066183333708997
1631021764565743548,623427.4777585724,4848820.72082434,154.05969966796468,2.3383141874456346,0.09264318076360953,0.021556709633012476,3.1223769215786676,0.02275040445682245,0.060859108849833324,0.089648962692088,0.00401995482327288,-0.006299726911639371
1631021764815952513,623428.0991466087,4848820.745174639,154.06577185625073,2.6393148698642714,0.07928686099770388,0.020663331990205397,3.123172757495927,0.021259510355625802,0.04109937537360111,0.06448766185310131,0.002406504692691764,-0.0016807030604224762
1631021765065969490,623428.7972003786,4848820.76993778,154.0720565106637,2.952626746350379,0.07644313423744666,0.022145388832639883,3.1251203573926953,0.02025571540804314,0.0312033742224303,0.021179979344716972,-0.00012973583769074483,0.007992112589498307
1631021765315985262,623429.5793475944,4848820.792010755,154.07676937785138,3.3106459196572025,0.08815643574680916,0.018732428709812454,3.1245492531596155,0.022064244533388455,0.03007027938715545,-0.007896165665907383,-0.002242421791251604,0.005336662211240968
1631021765565989149,623430.4513805321,4848820.834276956,154.08470473040583,3.664668477309823,0.19108392369294813,0.034910496358282694,3.129256690265897,0.021624964551487474,0.03253876299518938,-0.011555960313329804,-0.0033519281001027808,-0.03698648050762121
1631021765815671069,623431.4111534702,4848820.8931422345,154.0915059767992,4.027230878706014,0.19963653534812828,0.029658926279371264,3.137993354133064,0.02081547655076419,0.038400535296333575,-0.02736582427813326,-0.003177914097443877,-0.05495456927309415
1631021766065542142,623432.4495920794,4848820.957365355,154.103439616055,4.266253865017071,0.20721044603338862,0.05264410823032069,-3.1383536530513223,0.020193660552264608,0.04606661634019218,-0.03497720346282077,0.0030148097496280665,-0.009341295626734943
1631021766315246551,623433.5403401318,4848821.030708672,154.11884470765986,4.455450413600145,0.23010654231701128,0.05536767164293756,-3.1333586771729176,0.0271877336915788,0.053524445876182304,-0.02819803111782289,0.03126436773739417,-0.017018042067457287
1631021766565190200,623434.68224052,4848821.111279282,154.12967812680128,4.677782850004592,0.2590029396338182,0.043130011163474896,-3.1310895001282155,0.032477376586861645,0.061075256918256965,-0.03648236582763201,0.01985209948559467,-0.006277106861837363
1631021766815376771,623435.8821202917,4848821.212405493,154.15847339222438,4.913278979248713,0.32447201555513533,0.14516116762411382,-3.1260251341113117,0.03179955170951228,0.07027590806341553,-0.04357629930765173,-0.01677215965205498,0.01191772789468417
1631021767065508371,623437.1239692338,4848821.311660545,154.18860713319174,5.011767047926252,0.3774370094583176,0.08378623326019652,-3.128799982183133,0.03553712510187632,0.08243009544329494,-0.047870593047977646,0.015632764790121247,0.007937472608476744
1631021767315967206,623438.4127642366,4848821.438247102,154.21809896655162,5.263298927638827,0.5176870157490934,0.1526275690590678,-3.1277481419737376,0.045637364160688164,0.09361782077259835,-0.04825800210268894,-0.019893113166356675,0.004980887505543153
1631021767566092836,623439.7647918927,4848821.581646102,154.25845424966505,5.587770871062288,0.6123883395201887,0.15997735167611227,-3.1290612873238577,0.04219440234038386,0.10541436950141236,-0.04327768621651972,0.03902561774663355,0.007415985827227712
1631021767816056484,623441.1738887767,4848821.75716613,154.30216338011272,5.615067516818228,0.7158489238448519,0.21305609816969934,-3.1273629457915004,0.02792238931678856,0.1171959276719044,-0.0492268864358054,-0.04304950425175184,0.020817399034161042
1631021768066050995,623442.608795355,4848821.9456329895,154.3423017351838,5.8067351808350915,0.7537245418342547,0.03639803617258669,-3.126191730198673,0.05082792345578533,0.12917763493403092,-0.04843231575496354,-0.06463327182491907,0.024345754480600626
1631021768316197045,623444.1128548487,4848822.16638549,154.38945079733648,6.219009978941771,0.9541152544299002,0.370054437789016,-3.1231054312438973,0.04776999693450341,0.139485883220229,-0.03797716123418058,0.09450996927665009,-0.01845521074071936
1631021768565606784,623445.6650075943,4848822.404396074,154.45869157776025,6.259781538787932,0.9027187858967126,0.1372652323093,-3.123786324298838,0.03726353046005722,0.14961672095269704,-0.04467239984139053,0.0027772826955100634,0.009099375368417673
1631021768815782031,623447.2601614543,4848822.657476818,154.4930340531876,6.502327111434823,1.0360752125428336,0.18706019755783537,-3.126265076663485,0.04227912003285588,0.15904210039498665,-0.04162412005177764,-6.307426318875371e-05,0.0017775688944765614
1631021769065414007,623448.9037901526,4848822.941771221,154.54607854846708,6.70656779723939,1.0812652205651423,0.18600085746544365,-3.1264714604018877,0.035445466355494955,0.1682241373812198,-0.03758545245144108,-0.013755556768633662,0.007068431737012643
1631021769315517166,623450.5891271089,4848823.24639681,154.5875793778532,6.793528949449063,1.1937475587374802,0.16958828891454789,-3.1261443688999626,0.032154226175457594,0.17623242765186417,-0.022329907076321567,-0.0010443691546819758,-0.012168576206428831
1631021769565482455,623452.2924100898,4848823.565260484,154.62799961177961,6.8618946410506565,1.1692220274729417,0.1548141115947829,-3.1245161835458486,0.033440696627721554,0.17900222130759127,-0.0052421073440969065,0.0015585988294503546,0.011195409469224288
1631021769815577564,623454.0098026486,4848823.875725929,154.67219772298156,6.908607073345615,1.1571509455444677,0.1673135385683162,-3.1286959551736433,0.029884955904361007,0.17867230433550413,-0.0031308127059948183,-0.0018689414779422039,0.01999173241086033
1631021770066188006,623455.7299995611,4848824.183549659,154.71275006204633,6.801979214945474,1.230830086175367,0.1808353079549265,-3.134044099923472,0.027651385997761804,0.17845003874822424,-0.010098938015551166,-0.03432277676839324,0.05950504555530801
1631021770316116468,623457.4502433068,4848824.47994108,154.74411194803375,6.978709939648164,1.2336154011242626,0.11654664353248553,3.1404515185813398,0.03411913313547018,0.17989981837729976,-0.00994493547244882,0.0448907643668746,0.07006524385080806
1631021770566387651,623459.2001829332,4848824.827601886,154.79155398938886,6.967234881018387,1.4220359429038076,0.15463971074110927,-3.137689963639493,0.006077447033837644,0.18759055574367953,-0.052401449370117016,-0.045191201838166,0.055780693857363936
1631021770816243747,623460.9389081049,4848825.179894017,154.7959955836607,6.920582486213319,1.5301452008206748,-0.04353931855310075,-3.139636163272169,0.02679667843576165,0.20281181272285154,-0.04528624491653428,-0.06378668298986756,-0.08208001154343587
1631021771066228712,623462.7048990525,4848825.59873604,154.8258117613686,7.203235206077728,1.8587135269244452,0.15862825594271987,-3.1280371852642532,0.01518322675590558,0.21758417091636914,-0.0833357774975954,0.09776947431422617,-0.18299969871755012
1631021771316223285,623464.4931978427,4848826.021185745,154.83915134371108,7.115531527039688,1.5641481970507263,-0.011755853186164076,-3.130326234594896,-0.0028916162290663107,0.23372027135322215,-0.06419660661096174,0.049498250571281245,0.02979484275745885
1631021771566124573,623466.2709056521,4848826.479518428,154.8229661794827,7.151635769502231,1.9126297353215505,-0.006851475404205748,-3.1216961273903636,0.026178392031516097,0.24647512298855337,-0.05264835694516062,-0.130682416616801,-0.12350171463525811
1631021771815974317,623468.1053028195,4848826.958018725,154.8521128255243,7.496992801025055,1.94305716668386,0.1455778080194108,-3.126162959843916,0.013577603444225322,0.254122071042191,-0.007490829819652059,0.0533160978413525,0.029053335579511435
1631021772065653264,623469.9642232377,4848827.464472777,154.8653174295505,7.464129969942189,1.9304331498123701,-0.04047266995526176,-3.1228283103523258,0.004394532010686626,0.2555941223571984,0.0027624329543114033,-0.0032469268717659457,0.06550567412087056
1631021772315511983,623471.85043136,4848827.960452412,154.8560254031063,7.669550760731204,1.9149882964026193,-0.010372228615280268,-3.1250950419706625,0.013023849670669566,0.25514947412091843,0.012472783537961643,0.00904666380710162,0.07810338185653015
1631021772565666249,623473.7855619047,4848828.46857401,154.8646146390461,7.82821848833138,2.0051882958585665,0.021760923614966968,-3.1269389447599085,0.008354644747061211,0.2543999315870504,0.008187945543491964,0.0041302739633983015,-0.008027136586278592
1631021772815726977,623475.7521842602,4848828.996399824,154.86382573741045,7.9341907327189425,2.0657120390122303,-0.0032690039989395764,-3.123570999179827,0.009869807812110172,0.2538685321920895,0.0009237815490562706,-0.0052532802646558935,-0.02900417282454553
1631021773065916199,623477.7626982059,4848829.509292216,154.86132928281975,8.184200490280134,2.0076638081437976,-0.026922102662189112,-3.133239136430007,0.004698394737023017,0.25291096913108374,0.009741001183155193,0.0644674274442811,-0.08494749421982353
1631021773316266903,623479.7996204955,4848830.04237814,154.8568408076602,8.10428549712049,2.1151346689730883,-0.08591077441131242,-3.1352064987828685,0.0015368616262565556,0.25223518575485243,-0.010831527736043017,-0.04020696774022749,0.0875365689560613
1631021773566109296,623481.8519664002,4848830.5671816245,154.8451813640566,8.314627820826018,2.147675625413446,0.003780885469428369,-3.140354787383708,0.012289825724232595,0.2533520715380205,0.008868639942214764,0.008739524182984638,0.02756751158340365
1631021773815944154,623483.9408218528,4848831.115959592,154.85001016763232,8.46672121411405,2.1272167651097247,-0.0317701769587485,-3.1412199304546435,-0.0015034753113806003,0.2524524856269945,-0.002528857916800521,0.04283830769591577,0.020976867566147427
1631021774065705766,623486.0436065024,4848831.650199226,154.83048728195573,8.429298999867436,2.0844479217539784,-0.12000972376595993,3.133784442797982,-0.005300636343032611,0.25242612085816934,0.005844338349964809,-0.0023455654824638818,0.024756395792439892
1631021774315773935,623488.1522597326,4848832.193720327,154.8043205171899,8.442969489531814,2.154465100193376,-0.0601222854624143,3.1304115909175487,-0.006781604585324025,0.25140658326543996,0.0073019566909661065,0.005612306095811756,-0.025247374310334962
1631021774565511719,623490.2482619281,4848832.747940127,154.78226513709896,8.40862575641614,2.118893068029654,-0.102771002125151,3.1354267976829067,-0.001679525573740889,0.25082747283926726,0.003331360071751525,0.004143780883698869,-0.04222497968804044
1631021774815550041,623492.3488298907,4848833.3070364045,154.76831253535224,8.42784783639343,2.0869775410639084,-0.044207692397175535,-3.1409743043007747,-0.0003485738571012434,0.24923716921054115,0.011885699996948293,0.004045469377260832,0.005203306283802623
1631021775065509915,623494.4488371571,4848833.84881796,154.75704224430538,8.438699741809677,2.031622351404126,-0.0397055549347097,-3.139048401856228,0.001490806897190946,0.24367638944077016,0.03202802374733493,0.00683298494149001,-0.00748558195507321
1631021775315776721,623496.5562237581,4848834.367618249,154.74582466191862,8.448851967878772,1.9750392701443782,-0.07112183556955273,-3.1405241557181443,-0.006184795822509237,0.23556692471127538,0.04497870871865078,0.006250910945207558,-0.0004912841306737867
1631021775565946864,623498.6589062754,4848834.869855838,154.71923926466255,8.416188898888592,1.8932236837158014,-0.13271151077032603,-3.1374934744308582,-0.012859742245534616,0.22282754601949978,0.06074639050839296,0.013918182224991409,0.00012413093344636701
1631021775816100665,623500.7587980505,4848835.33190831,154.67964951138725,8.405836862120758,1.7482630369948648,-0.16908044228779945,-3.1367784234688143,-0.01723872267228817,0.20511890599201416,0.08518686715265968,0.016634001227608563,-0.027821931465184798
1631021776066379516,623502.8614047894,4848835.749544219,154.63154039652915,8.369246219156022,1.6626620758272663,-0.18814697105259412,-3.134510077596589,-0.0216049648960808,0.1838695669710722,0.09100128955383031,0.04559023198563622,-0.0884413593515736
1631021776316613310,623504.9533561609,4848836.12392626,154.58491503558145,8.33628976700361,1.420991140881481,-0.1837850502160161,-3.1310533378053163,-0.010449748992705262,0.16114827782143795,0.09262099162771832,-0.1627351494741121,-0.012705189503855489
1631021776566405832,623507.0468781724,4848836.44767295,154.55627429072646,8.42781084673767,1.132671473357953,-0.08513507810199517,-3.1263580810994,-0.01421314496317654,0.1344311151336803,0.09783602825581246,-0.009467098638235819,-0.01811721601000592
1631021776816420923,623509.1428536777,4848836.705058998,154.5198206822045,8.378794286784162,0.9428999424722466,-0.17823001537850114,-3.1230671238896783,-0.018118636456490703,0.10505802673045725,0.1291039642731314,0.03977101959803999,-0.04397003099584684
1631021777066112151,623511.2222998488,4848836.895793833,154.47968962441993,8.309784306451377,0.5852060698646476,-0.16622626965980586,-3.1162068980143722,-0.010809794288207228,0.06886093805822972,0.1697362323225664,-0.007220481180313686,0.032860218091772836
1631021777315626531,623513.2997116952,4848836.991182459,154.4560104020533,8.376646617889783,0.1100604260037435,-0.03302139285278456,-3.115731128580863,-0.010523163700803482,0.02381339086030727,0.21071369511713517,0.0018865894392461977,-0.07594384125261912
1631021777565814862,623515.3809191835,4848836.98362982,154.42403302323,8.311756714840184,-0.3454329570865835,-0.16059821857972065,-3.1115101003767442,-0.024036992904094848,-0.030819044166495415,0.21956007984712225,0.005986336019686568,0.04292959586634364
1631021777815649729,623517.4358397016,4848836.856977987,154.37099734411547,8.137269430043572,-0.8295294010642966,-0.2200867104002435,-3.1092606586372606,-0.023048376784056898,-0.08655934217881069,0.22467636651232628,-0.010428968627077219,0.015270042542197727
1631021778065578178,623519.4630307545,4848836.614484465,154.3277387546953,8.073955359979282,-1.2800812240763444,-0.14477420595605262,-3.108436676816703,-0.006988381974677035,-0.14230363269402177,0.22855225200303264,0.010315376426560064,-0.026539054428020053
1631021778316029015,623521.48104345,4848836.265065624,154.3084291129677,7.9872269181158515,-1.6575661696262167,-0.046327603757170266,-3.103963878861748,-0.012830153888052993,-0.19854403260870437,0.22695516812408242,0.003531241028274772,-0.01720184598315631
1631021778565953378,623523.4508905866,4848835.800803394,154.2818055165227,7.824424767633149,-2.138920542452919,-0.13702443695803052,-3.102834930773359,-0.007137432409292988,-0.2583995395251664,0.25040806631067103,0.0008606730460307332,-0.0126233818648427
1631021778815881249,623525.3828887253,4848835.213889966,154.262351418594,7.6151007596217,-2.6067570156642246,-0.07373122420787495,-3.101490810920307,-0.014952404586387065,-0.3208583140345144,0.2567971222955365,0.010107172124142855,-0.026444772709080022
1631021779066155109,623527.2672234655,4848834.524868419,154.2263813044582,7.459825053490082,-3.108436549618438,-0.14646238088239982,-3.08972400863872,-0.018800185949295996,-0.39131285085443385,0.2898333864353146,-0.02038659018048916,-0.025636316427817763
1631021779315818677,623529.0828880677,4848833.678832937,154.18518261252302,7.047372113931749,-3.6709501769723225,-0.20564524019208041,-3.0868714641721096,-0.03323612220738983,-0.46884153663538297,0.3187734542498981,0.01150640125078549,-0.048224131961587986
1631021779565589927,623530.798129964,4848832.709208541,154.13173506539448,6.5891900803530525,-4.247637484881944,-0.20649521241681745,-3.0857923268964074,-0.014407344593331803,-0.5506860334345995,0.3381115632154038,-0.009143245545634905,0.04304960814767424
1631021779815447021,623532.4168569103,4848831.588543716,154.10811829982129,6.197616475839115,-4.842674620872378,-0.04038325241017143,-3.090619559476889,-0.006174809397846223,-0.6324733368651322,0.3235083215241472,-0.018947926103141253,0.05929762005248729
1631021780065587032,623533.9423562669,4848830.368992516,154.10043260999916,5.809754589046243,-5.153184200985167,-0.0189422258464384,-3.081592418321638,-0.001563089410327004,-0.7132522846808297,0.3116833701511072,-0.020544125760079978,0.007191964587627137
1631021780315587595,623535.3444513187,4848829.0418541515,154.10537981225576,5.300723642382737,-5.554326873458686,0.016190296944379123,-3.085163136908333,0.014965454930493841,-0.7868439275355497,0.2893091321677355,0.01596456268853679,-0.027569907002571486
1631021780565653660,623536.6429452448,4848827.59756076,154.12899812501928,5.004335394398944,-5.9969498905971355,0.1143248230411723,-3.098040585664682,0.012418289766752017,-0.8507123062119419,0.2186701535102294,-0.040247556580557835,0.05691611440248883
1631021780816041901,623537.8674304791,4848826.081829814,154.14801607064643,4.717349431690383,-6.141250568726946,0.023035156639848314,-3.109205731077108,0.008120532664987126,-0.8978275251089705,0.14757592095706365,-0.03632356264388565,0.014860921027386778
1631021781066270385,623539.045449705,4848824.521707526,154.15195771839706,4.702327905140902,-6.298878508534623,0.0586528286787244,-3.118408699207466,0.01539374769058537,-0.9282717315870377,0.10149415291761997,-0.002904036316405072,-0.01147119089568571
1631021781316375241,623540.2240951889,4848822.937335875,154.17079438025715,4.696200027247661,-6.416257808384927,0.06834253740293317,-3.1109270584979076,0.017164192402235445,-0.9485341565729755,0.06417505870518075,0.01638203002342383,-0.022629494419885827
1631021781566063372,623541.3990822277,4848821.324972243,154.18946453476326,4.736311313377567,-6.541829002528953,0.08946210122188192,-3.0979898778878927,0.01807523620130562,-0.9609770679061391,0.03630224830331936,0.06311770476336254,-0.05179941419860454
1631021781816251128,623542.5847023032,4848819.675819554,154.20802305999274,4.738704310588629,-6.704580463132596,0.07070124895199281,-3.083230569447217,0.012847898767223585,-0.9675238324020442,0.015769716041450915,0.03486505165335234,0.007901212804338354
1631021782065845501,623543.7677335195,4848817.998465625,154.21836080815814,4.712444079701864,-6.788842018040815,0.00723276475100787,-3.0764538095699647,0.005289803907679428,-0.9677848744197858,-0.019559195178550894,0.01347874377599091,-0.004335405854295649
1631021782315621025,623544.9518043293,4848816.307037365,154.21806455405846,4.69579131247699,-6.798925376634455,-0.02607553174138577,-3.0787265341269427,0.0009120279417464404,-0.9611893830764695,-0.041350063486676525,-0.0034082867478994272,0.01425691247457367
1631021782565712375,623546.1521315775,4848814.620028807,154.2103746089322,4.7956382069514945,-6.7564003940054285,-0.042622597616628455,-3.085646761723696,-0.0011401732164447451,-0.9475683278013552,-0.06525045984394784,-0.03134545609463466,0.07092519156235005
1631021782815714623,623547.3863458507,4848812.956063296,154.1992637156428,4.945925316084286,-6.645749190332318,-0.05918319440477765,-3.088295110986099,-0.0008740630351860044,-0.9295306001604501,-0.07219862347519262,0.0013809474999967653,0.006087240700747517
1631021783065823774,623548.6610278129,4848811.301812425,154.18366606864643,5.19310176168479,-6.619003797940944,-0.04875550909032811,-3.0916822409617617,-0.0028421167692927684,-0.9110664216858342,-0.07081511554207251,0.007267472317783316,0.006746019484734535
1631021783316063433,623549.9838909946,4848809.6631296165,154.16534065935915,5.284806270591083,-6.5234535190575285,-0.09761660774383252,-3.0888012529021287,-0.007928384230896372,-0.8921218219778991,-0.07668595543766257,-0.03450138387627408,0.009802162082411182
1631021783566407675,623551.338210531,4848808.04110737,154.1423460963581,5.502854789755997,-6.451553579134628,-0.0502106434238902,-3.0929379859778563,0.004734934774817474,-0.8735147721983348,-0.06990283545272423,-0.013787598027027413,0.05567727334116336
1631021783816388549,623552.7328023268,4848806.4189213775,154.14123411768338,5.660480610625708,-6.442539309302419,-0.017957813436675907,-3.0977705315059008,0.00015191971000600403,-0.8544695682811967,-0.0793142747681201,-0.05566775948572086,0.03639832735892999
1631021784066410572,623554.1726461374,4848804.829570165,154.13245024893752,5.820238371080811,-6.263177912780869,-0.03506329499928229,-3.097777540168243,0.004266801283767103,-0.8325484548204034,-0.095782583462313,-0.06055064715844468,-0.04489047406910426
1631021784316052609,623555.6468815559,4848803.270522422,154.13599556293065,5.9774928881653535,-6.20273826090292,0.060723554732227084,-3.102685388767307,0.0180415104429673,-0.8086973460051585,-0.09445517126114188,-0.025190287926306534,-0.0035594590352246505
1631021784566027687,623557.1751440112,4848801.726646183,154.15877394965085,6.163571826429322,-6.170210777265966,0.0861678513468333,-3.1066868044924663,0.006635118248082857,-0.7838359736494769,-0.09628528184573523,-0.048399547473058635,0.1848057228000935
1631021784815886649,623558.7347717482,4848800.2422037395,154.16535186159987,6.210077318440199,-5.8575301523845065,-0.013921975389602742,-3.102242251414945,0.008543813313533561,-0.7591468508815696,-0.1047561834626153,-0.01431883101561628,-0.01652934741741314
1631021785065822835,623560.3252345775,4848798.797794958,154.17461704517095,6.426777025163945,-5.784644302529068,0.09781167910939832,-3.1032042058658664,0.012829646704635806,-0.73377883786116,-0.09185445256068833,0.010389353685508466,0.018663477979553495
1631021785315489400,623561.9403388124,4848797.374423726,154.1891990525029,6.3942742181452585,-5.672987727631596,0.01700613864545858,-3.110632386609229,-0.0010323896675366081,-0.7132620831780196,-0.07793695442447943,-0.009684464754231292,0.052220740974709544
1631021785565804499,623563.5736388008,4848796.025283583,154.18659086025826,6.5038433896662955,-5.364692970528487,-0.03284659410886227,-3.107036091325174,0.012800754474022163,-0.6933475070074242,-0.07245995267303888,0.0009098908469917223,-0.03677637143548608
1631021785815957363,623565.2242375237,4848794.679806119,154.20166822739216,6.650079513243076,-5.35773559567378,0.06736389480193386,-3.1113697682348915,-0.004888600757389207,-0.67878307401327,-0.05390696880770288,0.037091613878494856,0.06787632273883859
1631021786066001948,623566.8730300841,4848793.380450381,154.19209670995653,6.513460198574362,-5.120633977486847,-0.1401397839396301,-3.115549870202045,-0.003151857124976048,-0.6643138964565454,-0.063885186417694,-0.055811198982923846,-0.00076506723516112
1631021786316316160,623568.5346644119,4848792.115807766,154.17478647133967,6.72096220373805,-4.981122054725344,0.0069444215992691405,-3.116925001623059,-0.00044674766240389833,-0.6483531029577628,-0.055407113202699546,0.04152817847491521,0.03864260206116564
1631021786566578013,623570.2081799458,4848790.8884859765,154.1703049785908,6.669678045240846,-4.7997722075902125,-0.056704105354528744,-3.116343482998372,-0.003219507175504426,-0.6336376950758331,-0.05735802046089191,-0.05354701638051515,-0.014396710841910996
1631021786816616173,623571.8726023437,4848789.697140797,154.16078839318445,6.683597232557948,-4.626366352071217,-0.0007390781484990228,-3.120154007641208,0.005141724026116771,-0.6192053121878263,-0.06256645757477163,0.039341876887741246,-0.027748648959388892
1631021787066106175,623573.5378209236,4848788.560679356,154.16563806145595,6.639100841117589,-4.51427842682659,0.022110640834759734,-3.1142323500582774,0.0028161932224394794,-0.6043464066103535,-0.05729257520615047,0.03144029962922888,-0.002718688413181177
1631021787316213603,623575.1885474301,4848787.479171152,154.16830683939108,6.501831785929071,-4.231829703291182,-0.008736258183970058,-3.1043353511780367,0.0003899173755495155,-0.5921420459645375,-0.05648190464366342,0.004391145821106098,-0.05967940458236299
1631021787565803857,623576.787122475,4848786.4345061835,154.1689830644228,6.300345348728126,-4.098358949809291,0.019814348038697027,-3.1094759299441597,0.006367512976185626,-0.574638193966631,-0.09559665034076766,-0.007333863842707909,-0.00018902536581118684
1631021787816740699,623578.3672274839,4848785.465439343,154.17942827070402,6.2568059019071995,-3.6177541615277047,0.0450370417952892,-3.1133567547821417,0.003584094395502674,-0.5385014775862724,-0.1873861465250963,0.028329113755309762,0.0012353429257947843
1631021788065497235,623579.8988371025,4848784.63296425,154.18859521893341,6.028527894717827,-3.0700295042425076,0.03466755189609591,-3.1164463132974323,0.005481562201594764,-0.48427235874373825,-0.2515167374542486,0.014200964031469674,-0.013522055079042349
1631021788315674756,623581.3971382733,4848783.95237826,154.19598679913256,5.881124122981755,-2.4550667796471015,0.05135200163520222,-3.11839764637279,0.008350119471148163,-0.4086916634809645,-0.345352203111812,-0.00156660541432005,0.014353045178257138
1631021788565757834,623582.8481459097,4848783.4482033,154.21340632466232,5.668133431056238,-1.6424653701396414,0.04619924173477502,-3.1221516257255617,0.004247432457114656,-0.31227414199411374,-0.4329032708500823,0.007327263621561391,-0.0003849009929059896
1631021788816388542,623584.2373857653,4848783.140969126,154.2170182776356,5.394110209608261,-0.8231390222532118,0.012503681474816838,-3.12605885493835,0.00426856940310301,-0.19725239028319977,-0.4796727999825995,0.01121281725956746,0.006739415863259948
1631021789066343125,623585.5443665086,4848783.031979045,154.22263425306318,5.026994463961464,-0.029990329488062073,0.018900485800887386,-3.1257540056977735,-0.0036897694925365817,-0.07203394705165468,-0.5121935489307065,0.033574941206600116,-0.008093461562628117
1631021789316349514,623586.746134395,4848783.097872609,154.2224900885257,4.589456889567465,0.5820395176614046,-0.029045587522068497,-3.127680844278427,-0.0033133439328428735,0.061190237274963914,-0.5562127756238086,-0.02386111336250184,0.0336048577696928
1631021789566526829,623587.8593172345,4848783.328667752,154.2122458382559,4.267531205629376,1.266551764900894,-0.021871810517656118,-3.129269618346052,-0.0032646081350115323,0.20660585285520494,-0.6159816430133243,0.005555025123418543,0.01843459202850841
1631021789817664393,623588.8937368878,4848783.711196439,154.20863128487528,3.89350924357004,1.8983535202214252,-0.020112990632139643,-3.137864046289476,-0.00574773555102911,0.3696206883053943,-0.6552216196375824,0.03024058069238375,0.026370113130852527
1631021790066014915,623589.8015494093,4848784.261346874,154.1966481719738,3.3679007984186127,2.509561336204899,-0.051713904142669895,-3.137543623849669,-0.004563211110221963,0.5373526686933408,-0.7090924393860899,0.0025531059812985853,0.008358850027401344
1631021790316055996,623590.5824406426,4848784.953846423,154.18509333597774,2.850667706761872,2.992857569553568,-0.048117209600139155,-3.13881219949136,-0.005893094876842631,0.7163654195466993,-0.7078604691509112,0.026670039287091322,0.013014958302523437
1631021790565961175,623591.2164483699,4848785.757648235,154.17521451394134,2.1994483432422864,3.414184184371068,-0.044342972826384754,3.1404021136640052,-0.010000511751695945,0.8966562310638231,-0.7287368759291164,0.014471815071761103,0.00025679620667268905
1631021790815707455,623591.6695527427,4848786.653770359,154.16009958821616,1.5197915701432732,3.6582815078110555,-0.07720401563975564,3.1412299594214352,-0.014443281470132768,1.0795263551625502,-0.7462138119137653,0.018861446549348685,0.021967772471816964
1631021791065860539,623591.9524953885,4848787.599869916,154.14214476558328,0.7715086875571323,3.878034387853282,-0.08116290997390374,3.1353331079617472,-0.018809212119336234,1.2690109057769294,-0.7691059213774485,0.00809691867730696,-0.019668681815230255
1631021791316022865,623592.0391788845,4848788.58289429,154.11870088537654,-0.042189189876477295,3.934438346149537,-0.11656237188005975,3.1294931564497226,-0.025858165709949484,1.4640154253670459,-0.7980481296239914,0.012501174086376266,9.791472357448064e-05
1631021791566165486,623591.9285869865,4848789.568834638,154.0905814928752,-0.8305799421249154,3.9212417751241655,-0.09775232102543191,3.124259670816549,-0.02485344832848105,1.6663322142102814,-0.8151949759148008,0.027939911072970388,-0.005880255965164076
1631021791816435026,623591.6236705742,4848790.530425824,154.06558780789507,-1.6420587997252163,3.728171915045237,-0.11774245565152773,3.1153379440784397,-0.022035827075175853,1.8723482030804492,-0.825882382545672,0.05992552952932788,5.663558398847668e-05
1631021792066546904,623591.1139706878,4848791.42737608,154.03682578024697,-2.4509750476349064,3.3827534802897277,-0.09931345878798906,3.110439083588657,-0.017232251284403803,2.0782186450125852,-0.8079203514196848,0.020625259913971995,0.02313237557494276
1631021792316823865,623590.4216585428,4848792.227955456,154.0172139366557,-3.1385624841332302,2.9491232372204803,-0.0576688608129905,3.1080824919293026,-0.008852796715922638,2.276075200517318,-0.7747391906218984,0.01828225693030915,0.02616726871205665
1631021792567023597,623589.569243713,4848792.915687375,154.00019723374191,-3.7172007357850076,2.4673132837098284,-0.06812066970711377,3.1063144568878815,-0.0024484987735807445,2.4603249551396438,-0.6979711486283058,0.016662693017140802,0.028317585347937806
1631021792816790563,623588.5754082372,4848793.479774519,153.9907715278232,-4.234119177326644,1.9676906626888098,-0.026339146430006927,3.10310758135653,-0.00268641303259167,2.626958254592516,-0.6441591526206369,0.003970763651830415,-0.015399781608191101
1631021793066298151,623587.4645049073,4848793.904407575,153.98123309798711,-4.647255173709115,1.4061752762441246,-0.0349469269316917,3.102615939443253,-0.0019109288466547779,2.778389312467655,-0.560601816081176,0.01320780089244774,-0.006339369324036529
1631021793316391372,623586.2672687144,4848794.201113877,153.97577657825042,-4.939586418987695,0.956979888602125,-0.020433699000787148,3.1041656425488204,0.007830474833793491,2.8994164018534936,-0.4165337860441602,0.0619920366593391,0.020612174426253082
1631021793566223159,623584.9908519061,4848794.397094824,153.97126483439192,-5.317166508047757,0.5698350622582073,-0.0048064853212197445,3.112368579362054,0.01988544676426364,2.988417187275663,-0.2828359723074706,0.019111869134831042,0.04577732757420929
1631021793816199655,623583.6130909692,4848794.523439502,153.97951578924977,-5.64159917499598,0.4154144153667079,0.07046528149390445,3.124854699480076,0.01513574862839981,3.040368079091246,-0.14481464884504253,-0.03430790469380212,0.007514131834256238
1631021794065858380,623582.1746251279,4848794.62703755,153.9916458166686,-5.855303569442617,0.46962211713523516,0.012361366556393583,3.1255245202773647,0.010630546487225844,3.0665179817999544,-0.07641995625706562,-0.00506207883045083,-0.014724825165545144
1631021794315445295,623580.6920771835,4848794.722558838,153.9954900575013,-6.065488113823791,0.42058477228618785,0.03840486281069365,3.120108558857193,0.016963122982211302,3.07719627634232,-0.01196906115422177,0.03288707067215393,-0.022033554779347136
1631021794565554139,623579.1418007256,4848794.813592732,154.00264669519694,-6.358551201920448,0.5021385908447624,0.031368687046597316,3.1222151563238416,0.022072903376433497,3.0756710654120125,0.026500106371200954,-0.014226653041003404,0.003845586039813666
1631021794815469356,623577.5091278844,4848794.9249351155,154.02091742167235,-6.620974807355441,0.5014005138503534,0.08502434685143312,3.127393743317357,0.012417296236580545,3.0644562362256536,0.06724898222274031,-0.030283389480615503,-0.046837400680666795
1631021795065663691,623575.845472278,4848795.061118943,154.03258746140185,-6.692623474674341,0.7211906689592829,0.02094568809802451,-3.141108057088795,0.016291915454132545,3.0396266200049826,0.13330230035831786,0.05754063438822162,0.008909853575506457
1631021795316002846,623574.1511937927,4848795.271198172,154.04263467896612,-6.886306508059526,1.0818107179535066,0.079610014306518,-3.1349192786273603,0.021924910448151605,2.9972295541286047,0.1970607797310725,-0.02211126350453103,-0.0062448215424317065
1631021795565975311,623572.4134293699,4848795.586443623,154.06864361725596,-6.912923312762896,1.5068667883613363,0.09234542316341948,-3.1385318974059326,0.010384242142826664,2.944312035337681,0.23154582558958406,-0.027480921238715414,-0.007176960470177123
1631021795816272579,623570.696969263,4848796.010933562,154.07803562648215,-6.845342968086657,1.9510410500856001,0.005603870537696412,3.1392815763487247,0.013052410325213301,2.881503929670112,0.25677316641541953,0.0426330742123641,-0.011869694903220492
1631021796066588775,623568.98044233,4848796.556418132,154.08809179427044,-6.8813061299849965,2.4055423498386315,0.05910087001394715,3.133920532714715,0.015676685842378153,2.8169574413411342,0.2579045137647871,-0.010191849993579373,0.00031567882400875886
1631021796316560796,623567.267759351,4848797.22198145,154.1023431330865,-6.856934213131028,2.9146565617457623,0.04958720856084996,3.12837352103019,0.015455054341935571,2.751054194564704,0.26588475473706774,0.00629918001744812,-0.03672468360149811
1631021796566148753,623565.5577984147,4848798.013301924,154.11387307734287,-6.81469334210521,3.4462685353645264,0.04204203286057945,3.126384908367186,0.00937707698655648,2.6877552727972747,0.24138292158691244,-0.025120946703793872,-0.025368403196642405
1631021796816154272,623563.8624943033,4848798.923475768,154.11561647117858,-6.753116776034173,3.864589419458931,-0.018982402208902516,3.1234770226592574,0.006915663749460835,2.6313648434920927,0.22052368786402923,-0.0010624365913926067,0.0004269681954650949
1631021797065979425,623562.1800108298,4848799.935995055,154.11342962953935,-6.693109586983212,4.308695154944218,-0.005132168639821563,3.1292415220982854,0.009642668397110034,2.576943678531409,0.21917101005670098,-0.00019947483016476074,0.017172928753208028
1631021797315737575,623560.5111234915,4848801.07532907,154.1109460348094,-6.586531047763362,4.931663836425744,-0.0023209503708436774,3.1266736396400114,0.004850819747702084,2.520986967277681,0.2348427541277681,-0.014208793127055436,-0.024369305171101384
1631021797565655809,623558.8888953016,4848802.334912858,154.10713700251583,-6.290397459558853,5.325558651580865,-0.03491400242754775,3.115700769697777,0.0011327258637000102,2.466244571148939,0.21290095074550724,0.030914640736368747,0.007863613108298927
1631021797815648324,623557.3158059753,4848803.685945965,154.09358519810846,-6.177083770333494,5.658449591774655,-0.030079971738324385,3.1131005493605546,0.0004423240735334761,2.4134868918578865,0.20266589744826238,-0.04062036357980725,-0.009031460618430418
1631021798065809928,623555.8024971467,4848805.117326121,154.08686509686405,-5.848976517667841,5.875530131779146,-0.053109711760435496,3.1174612274330817,0.00484216332948187,2.3630631605240726,0.2036145904687223,0.06635944917256746,0.039295426810709744
1631021798316139192,623554.3532855045,4848806.615716805,154.0901493206389,-5.7126601286009056,6.139477102451433,0.09645967526266112,3.1331697209264187,0.016941012274619343,2.3145731016571465,0.1741966086990151,-0.027139004577829397,0.0658216022889614
1631021798566289318,623552.9551867822,4848808.2032819595,154.11061577494254,-5.487485467287666,6.481185907805884,0.07743258251541188,3.133615006040421,0.007314103969880461,2.272516091801104,0.16531172023116047,-0.05770475715491659,-0.10486680266358982
1631021798816620574,623551.631690939,4848809.836881881,154.1196856732317,-5.0879168624274085,6.564174368027716,-0.0037137739719996232,3.1309083662458512,0.0059287322738742305,2.236411782026732,0.1283250517813244,0.07835965476412524,0.02799306288465279
1631021799066573680,623550.3948420294,4848811.503654195,154.12269634304175,-4.971042459068127,6.808761241035211,0.089661754399217,3.11788871673631,0.016165692490740204,2.206671249429666,0.0996506433896072,0.025494675119167826,-0.08665439359717854
1631021799316215514,623549.1656450045,4848813.215179309,154.14544627609666,-4.801101145727518,6.866051020171754,0.03397867640487179,3.1115752442058926,0.002670045196690872,2.185730770525483,0.07067879536779592,0.002624403671571556,-0.02286151182846429
1631021799566086437,623547.9823766551,4848814.924427294,154.1429485756246,-4.695913213659512,6.872943272349109,-0.0009280410865990518,3.1108816301190236,0.009027559862680664,2.170832924935456,0.050178906474478854,0.0002590339554724651,0.02055808876615893
1631021799816045171,623546.8069783241,4848816.652046121,154.15106804497668,-4.622685088558867,6.956329883606792,0.03781798911629122,3.1141828529147912,0.005513597710997339,2.1589719602728374,0.0534371339124279,-0.00032114142885409405,-0.0392039152619658
1631021800065760762,623545.66376233,4848818.385842281,154.1531730845074,-4.492353277353402,6.982668712165999,-0.016512094721685106,3.1089165381490584,0.002761536518384018,2.150304835972317,0.013741631105029772,0.010052583980851192,0.007104122484722841
1631021800315756554,623544.5270022888,4848820.120137014,154.14874579023248,-4.492060837721225,6.975496440332388,-0.02014218925608524,3.104522783946382,0.0015395871566047156,2.1524985129963223,-0.02007839741333336,-0.011090292236665196,0.0016987715596261262
1631021800565855869,623543.3735631361,4848821.844148011,154.14220986268853,-4.600457112833731,6.892976976474941,-0.030500997799823903,3.1034481552038757,-0.0009171895241265623,2.1616025850774094,-0.061608328540185144,0.0013881969115617642,-0.010214033525200037
1631021800816012409,623542.2012322992,4848823.549039668,154.13037834466098,-4.735052812915945,6.771837924235032,-0.05124254094711228,3.0953053698739876,-0.0028842189138916213,2.1824996272249257,-0.10315507445919254,0.030439540942365905,-0.00754540895192003
1631021801066174753,623540.981053617,4848825.212267813,154.11758645213058,-4.993443532788765,6.581480983757749,-0.05924013096418196,3.0920500053525717,-0.0007552916263734583,2.2154818278489907,-0.15894500921637772,0.016089445318214275,-0.005294119748558883
1631021801316564475,623539.6863009962,4848826.830368948,154.10763542854582,-5.308364594815937,6.309731130987791,-0.04541649240847384,3.089445237596647,-0.005508807224794523,2.2584871352791773,-0.1880513755766734,0.011107142461848636,-0.021867584334014836
1631021801566828103,623538.3216571716,4848828.379922623,154.0876188986465,-5.6568663968634345,6.031992133854934,-0.08296592637941996,3.086069849672818,-0.006711082838726107,2.310562485454441,-0.220642800924095,0.02219582037140439,-0.07582890691921075
1631021801816780725,623536.8690752133,4848829.844717641,154.0697326204223,-5.969019628151545,5.549015432915925,-0.07884983049331273,3.08828032303144,-0.009308042110004541,2.368857469426642,-0.23938798575227604,0.059643134098789935,0.041532964445458745
1631021802066616224,623535.367864771,4848831.191929452,154.0542537403975,-6.272841107437196,5.1790111182030705,-0.0216519380611081,3.086462812863399,0.012094913801147019,2.432910710603656,-0.2722110486060374,0.027317754482581304,0.01208361473390894
1631021802316687227,623533.74405236,4848832.445088229,154.07685745425877,-6.638052593705058,4.741730843412174,0.11884626800168513,3.0910479828915087,0.008603016504839854,2.5029423400553665,-0.29395316418323575,0.001740917049142039,0.01804391279600341
1631021802566437289,623532.0697848088,4848833.570834044,154.0935878505585,-6.927043489960787,4.163564636719135,0.09326612739911389,3.086561781539701,0.022013256793319974,2.576669418675248,-0.2924794979469696,0.006988322238707414,0.08029650150867793
1631021802816299794,623530.3085759686,4848834.571600844,154.13221956110726,-7.234855278351253,3.754989453779179,0.20758869043530184,3.0876919317974325,0.03023636355942748,2.651726184838994,-0.3010689577583217,0.008813828257789254,-0.06098375958512396
1631021803066098617,623528.4558550696,4848835.433811389,154.18982321566062,-7.551918761931574,3.176177169545894,0.20064475166589316,3.0869032796817555,0.028358701108107273,2.7280185389026177,-0.32488405386764313,-0.026343653795759456,-0.013280238752674972
1631021803316014016,623526.5245203061,4848836.160047465,154.23151539840381,-7.802184412453415,2.667903706071476,0.1566369270498325,3.0936583033734872,0.02028279433095582,2.8052604436783093,-0.2971415963523033,-0.0012200946717244253,-0.04469334970177718
1631021803566030570,623524.5376412437,4848836.735081343,154.26255617525075,-8.036140604578225,1.9506562619362051,0.10427309640372956,3.0983322477876944,0.016720461619885264,2.8800436490887917,-0.30047852956290966,-0.017415112982012915,0.05952703070337208
1631021803816292480,623522.5091110279,4848837.162630497,154.28828357612002,-8.156531196367158,1.4346686070918964,0.08748255174301472,3.1007415428052743,0.0179491420200146,2.956542335080917,-0.29451629260703,0.039676427659280464,0.0015267280049770773
1631021804066488619,623520.445761326,4848837.438041246,154.31754956050415,-8.320103377728326,0.7698644139062688,0.1437812909044444,3.108009864493556,0.020612873903072464,3.028593592196657,-0.29965217951283935,-0.03419483114703364,0.0587777172968133
1631021804316463199,623518.3689067377,4848837.565788757,154.3574904907253,-8.298598664120362,0.1434428081402495,0.15261034832394185,3.1097626776420015,0.026229580498294658,3.0999228426776035,-0.2668334070528564,0.07045300587493167,0.049078289233060735
1631021804567148045,623516.2800906728,4848837.546590637,154.4042955627144,-8.416709571337698,-0.3942132238655468,0.25024176718776997,3.1212286841273995,0.03420313723549629,-3.120217660723097,-0.22749291445782627,-0.03090765337148396,0.04693259379683005
1631021804816775231,623514.155426119,4848837.413374132,154.45972192873282,-8.44969619745296,-0.7977417672535969,0.19403139178069562,3.1257650024635333,0.018032096201789093,-3.067222009037969,-0.18826718878003337,-0.02503489050488466,0.00042537470624324884
1631021805066691301,623512.0478998054,4848837.181608818,154.48585037526567,-8.427554872607809,-1.0888896429570927,0.05525012410916587,3.126530945307235,0.01731955006825806,-3.0249155712002596,-0.1468473124275499,0.012599916440640733,0.19956171498450487
1631021805316764391,623509.9399684721,4848836.873272636,154.51610083242568,-8.443568156693122,-1.4176629487195496,0.10285617549883982,3.135571045988834,0.026507436797921235,-2.9921588271787996,-0.12495614111757601,0.0583622314523399,-0.12290597580392423
1631021805566444559,623507.7999680277,4848836.500823948,154.55791811069886,-8.622316848062994,-1.6797880465863313,0.20961416189198576,3.1386667850656997,0.024888206677032846,-2.9662810022549255,-0.07860638368080906,0.017070004143508174,0.008908815004800142
1631021805816326582,623505.638393338,4848836.083436312,154.59876488899445,-8.634923418456502,-1.757529991515234,0.13710948769223946,3.138680108084244,0.020528163873701363,-2.950617923032628,-0.04973402550249525,0.03728889695509104,0.01056065330301635
1631021806066213461,623503.4864998581,4848835.629723427,154.63491658125122,-8.642139414577258,-1.775885358816963,0.17138489795058606,-3.1362483970849273,0.026348723932167306,-2.93911329310131,-0.04115864612538291,0.08006785545294473,0.027166477300153476
1631021806316133796,623501.3206601008,4848835.162743131,154.68204057300852,-8.747040273432873,-1.8952480552935977,0.2277664096702583,-3.1326368199471015,0.02930558212418034,-2.933758854243656,-0.0341802836474855,-0.05436425549861651,-0.029056894945243075
1631021806566543504,623499.1212639043,4848834.680843796,154.7334455738557,-8.7389251803733,-1.9565529138277433,0.15695288286596537,-3.1333090788166076,0.018015130652702528,-2.926558229550439,-0.028024846019001053,-0.061533140890281585,-0.030878718067570195
1631021806816649949,623496.9369870943,4848834.181644799,154.76138261572905,-8.682738475547453,-2.0910166657415505,0.08829216513056368,-3.13515408804017,0.011953442277103841,-2.915815400019345,-0.0587877294181531,-0.03149446134863627,0.04100929371757864
1631021807066691381,623494.764918135,4848833.65420674,154.77692702219537,-8.656982251169998,-2.193755266782605,0.03544473066131369,-3.1366770128388763,0.007837651984453903,-2.9029850523724074,-0.044060706056371884,0.00953140857000589,0.012928060506462048
1631021807316637795,623492.6076036503,4848833.099500443,154.7875739433859,-8.580925276126562,-2.309229489052218,0.040212738916532,-3.133976858960378,0.008499481914967107,-2.890212114625255,-0.05699888356489354,0.02823449910953277,-0.0030352379826501844
1631021807566768463,623490.465513454,4848832.514828951,154.80022709898188,-8.531513244734116,-2.447298519878577,0.08170353174043463,-3.129609512082316,0.010891858633891081,-2.877897787361216,-0.04284541828812211,0.01501985195698787,0.03341132007305036
1631021807816443642,623488.3449904101,4848831.908543282,154.8207214612505,-8.490207371616405,-2.4522902217175693,0.08419642931156872,-3.1242480093252887,0.015174618623246733,-2.868003673184665,-0.033839920147334536,0.030813028817193267,-0.016716077164753228
1631021808066201170,623486.2190390701,4848831.295539576,154.84595169785456,-8.488630069095434,-2.4174034252083425,0.11497328292025649,-3.1275231635068206,0.012535776976389097,-2.86343694598089,-0.012214200987602218,-0.05749336967546384,-0.015385345348890071
1631021808316147524,623484.1003290536,4848830.680894766,154.86507516619355,-8.503752753952698,-2.4338715242534263,0.07346029611443222,-3.132668717721952,0.011662958612526628,-2.8603834464853914,-0.015400348684079404,-0.011250297222863111,-0.02452346216566296
1631021808566133828,623481.9691764631,4848830.059111429,154.87809673339976,-8.458376336019908,-2.4837148009793335,0.02380574116051092,-3.1392766202156817,0.0009144984761540042,-2.8590292183002592,0.000791319907885595,-0.0119502176291363,0.03413368124131708
1631021808816085009,623479.8692794023,4848829.441719336,154.8751203043284,-8.40602761571163,-2.391409056479305,-0.001538755109550316,-3.139246136038745,0.005573299821185853,-2.8599356600481176,0.012397665620439282,0.02166653652683275,-0.10087121589142233
1631021809066252289,623477.7648765484,4848828.829066299,154.8797696457672,-8.437866453714397,-2.404058851702622,0.025681937012438847,-3.1376600965290846,0.00419623286571307,-2.867311905044137,0.03060811378879717,-0.041159019799796005,-0.008529653764173282
1631021809316798360,623475.6610067537,4848828.229470888,154.8847491765494,-8.325833508305244,-2.3804830566914035,-0.01719854089096929,-3.1304770949370155,0.0009363843092604585,-2.8727460349531047,0.026484365213208214,-0.012761609465749566,-0.019101962784412868
1631021809566860321,623473.5784030746,4848827.651470557,154.882309463507,-8.30740094933782,-2.331176826879405,0.010688265180041567,-3.1271863337697012,0.002017014914886376,-2.880863050218831,0.043993031140940185,-0.01252549253582688,-0.057058284153041185
1631021809817084119,623471.5000323998,4848827.101073281,154.88375960673875,-8.265528913620782,-2.1637420135272984,-0.020435902365901343,-3.1272823847225215,-0.0009238184121869982,-2.8919746686917027,0.05450974822909198,0.025650080429847167,0.03660828351426344
1631021810066899093,623469.4351642118,4848826.592883096,154.87867146102678,-8.209555310372119,-2.011403461528128,-0.007170868019653822,-3.13158709458696,-0.002136841152432407,-2.9072407243609084,0.05917792678346699,-0.01816636474296457,0.09304354737234505
1631021810316828873,623467.3700912356,4848826.106494235,154.8648790329781,-8.264976681359522,-2.0170557729706657,-0.05439748665456549,-3.124566674032059,-0.009182844924138997,-2.9221763370794744,0.03671692971852475,0.10156906482230461,0.2819421728318974
1631021810566886143,623465.3327628229,4848825.663401809,154.85248408949246,-8.079992853896817,-1.7195151358229788,-0.10422442510543714,-3.129106098566883,-0.001760017967233147,-2.934707157221412,0.05637798654965081,0.048543261137305886,-0.20882306277779178
1631021810816671783,623463.2853819351,4848825.249246079,154.84446661785438,-8.32925797711302,-1.5826129543695875,0.0770656117599805,-3.1298746233094437,-0.0007404167762362318,-2.949956511486514,0.049086012445958914,-0.08331012617143649,-0.018772032772421253
1631021811066153221,623461.2015849043,4848824.863089181,154.8345481815281,-8.212508462316924,-1.5725028379144808,-0.14682412813968734,-3.1348549662650043,-0.021384332899664106,-2.9627362069460794,0.047492412199133714,-0.06827896467418772,0.0327247827158697
1631021811316351795,623459.1745495303,4848824.491878302,154.79153105240766,-8.174003968650538,-1.3666969680745868,-0.20170967054941843,-3.131525519621965,-0.00482668433756816,-2.9724245291280327,0.048992202543824644,0.06598111602150795,-0.010788333784555413
1631021811566393189,623457.0742159346,4848824.15128839,154.76475485740642,-8.386195506466283,-1.3034870181247387,-0.060971296191666274,-3.138664859910603,-0.031017022131665167,-2.983705338175097,0.030782453369571843,-0.08027905480556727,-0.14618653996696765
1631021811816386018,623455.032322047,4848823.831278032,154.71298967128197,-8.080078658297078,-1.2062972489043748,-0.31899525390292516,3.13601033274987,-0.0229277057908475,-2.9883112016756197,0.029113163505126785,0.07167057380513639,0.006525310409835618
1631021812066535104,623452.9909164506,4848823.519337103,154.6588979537294,-8.241809936757136,-1.3139188445112662,-0.13178217387199226,3.135805471815132,-0.018669268251175448,-2.9934434332591056,0.021756382431062142,-0.012851142070773059,0.03702331796663751
1631021812316692864,623450.937002833,4848823.210309694,154.61967630510657,-8.146968625533496,-1.2194926175184801,-0.2208958230056598,3.135626568084084,-0.024131829417323024,-2.996672410315194,0.016436840900855263,0.013120894116592221,-0.014322483818133884
1631021812566876072,623448.8950969501,4848822.912832073,154.56352497794722,-8.183110084242559,-1.2176913172676866,-0.19831009301325658,3.132145176075548,-0.02325353501519573,-3.000018870091893,0.011562748024581886,-0.0364031892078939,-0.011281840234660358
1631021812816656331,623446.8471317324,4848822.618684326,154.50932566407698,-8.168781308058792,-1.1892175069180484,-0.24270771623010065,3.1306995924115495,-0.029062859868271416,-3.002742669798405,0.014455188020048367,-0.011589228327903909,-0.041742566974271034
1631021813066801925,623444.8053705145,4848822.329758034,154.44455964645525,-8.167002714773643,-1.1976764288410922,-0.2695188072281306,3.1290789630097464,-0.029348379130002728,-3.0040663151917513,-0.000256408478662485,0.010713610762546422,-0.009169695961779533
1631021813316596509,623442.7480863438,4848822.033410781,154.37312314815898,-8.11698485622417,-1.2362598509050235,-0.2407877787226838,3.131588132099183,-0.040694534260894484,-3.0025879631359227,-0.005079091811662205,-0.01596105555730526,0.007110836931213236
1631021813566343749,623440.7527836527,4848821.7430308275,154.30060033243552,-8.093993527343345,-1.1664436153065534,-0.3030763774253224,3.1321544287422998,-0.016252385439328092,-3.002004880250186,0.0012711081919804012,0.06639857201165382,-0.022137728115967273
1631021813816281657,623438.688081763,4848821.441653711,154.26219056851605,-8.22910236898366,-1.2088736206593296,-0.140250953648957,3.1344627438076755,-0.03029201440749316,-3.0005482886226025,-0.009823435197712276,-0.037466064999491,0.00681223198535908
1631021814066060317,623436.6631773709,4848821.139634074,154.20168382447025,-8.119577824188996,-1.1874130045338513,-0.26583435258292043,3.137331026362142,-0.017478828696065415,-2.9983367742128006,-0.0011247933974135196,0.0829164618181759,-0.0012574760524227387
1631021814316416040,623434.6184274876,4848820.823094346,154.15768451399376,-8.170126855789285,-1.302229374524834,-0.09656014483146451,-3.135808039339792,-0.016546868752073306,-2.9965076263028867,-0.017187721028416005,0.01274687138698609,0.0755516481002107
1631021814566629122,623432.593358118,4848820.505193478,154.1270100095833,-8.108680260342169,-1.3217194207908625,-0.13545821835929986,-3.126598577270454,-0.005359964483272266,-2.992593141124787,-0.01446944782822533,0.046543927857934445,0.0024955677118832314
1631021814816687921,623430.5450653367,4848820.170781015,154.10660934281324,-8.19309834150616,-1.3917678886562026,-0.05462878717931563,-3.1189189334674015,-0.01102621949058131,-2.987444761511574,-0.024421071556162615,-0.008644725203622763,0.08461962947785628
1631021815066900564,623428.5072475184,4848819.826261978,154.08194793021468,-8.114976371234762,-1.4445119591631344,-0.1224679390145315,-3.110993559682615,-0.009731611804244674,-2.9819136637363526,-0.020227416441986477,0.006477856439695697,-0.005191711965026308
1631021815316700886,623426.4613035751,4848819.477023372,154.05305822827876,-8.235133298326275,-1.456971631423836,-0.11207527427405117,-3.1093904946486,-0.012510339732109908,-2.97586202705718,-0.017265453095177432,-0.07935078843378024,-0.014271343858424674
1631021815566319642,623424.3966971139,4848819.112338011,154.01852411763886,-8.20893054055411,-1.4912277948339365,-0.19689491173804285,-3.1078556635215917,-0.0246831542353842,-2.970233238625785,-0.02056767460047964,-0.014028469367808003,0.04142816930721664
1631021815816662946,623422.3443303478,4848818.739974723,153.96172496715923,-8.22274422884079,-1.5267962184019743,-0.22701850085893677,-3.109143383280368,-0.021434798205577033,-2.9642029898214335,-0.01967003584368294,0.03243558436381069,-0.008301726419652601
1631021816066512053,623420.2762425407,4848818.356451941,153.90947419232108,-8.269783644376405,-1.5559531658974737,-0.18625841007065305,-3.115325401841418,-0.023993436547844513,-2.9593221792315183,-0.021907875689156083,-0.038636931607910256,0.04700734577081994
1631021816316494380,623418.1837000689,4848817.95286493,153.84529563486305,-8.407204023146328,-1.7676108080113893,-0.29153080246646845,-3.109065767789055,-0.035283034977974276,-2.953848921975158,-0.05001811996080551,-0.010421973339370044,0.2218437501475881
1631021816566346739,623416.1015837592,4848817.5242733145,153.7724400547592,-8.180529958367021,-1.7197905854193454,-0.3555326715602364,-3.09951343492098,-0.036600882627550804,-2.949177011225351,-0.02082747901352036,0.12129491737404943,0.11427892163278221
