GPSTime,easting,northing,altitude,vel_east,vel_north,vel_up,roll,pitch,heading,angvel_z,angvel_y,angvel_x
1630597331027681,623423.4518832434,4848820.616395653,153.51020059981596,0.00045044319550845987,-0.00018790442894464274,0.00014444969599056547,1.7445678793914337,-1.306539697929148,-0.1914377436666078,0.0012686934686336466,-0.0008944918892097927,-0.0009700258867033367
1630597331127683,623423.4518762565,4848820.616397108,153.5102589150932,-0.0003497327742230484,-8.340614652634399e-05,0.0006805053229242843,1.744204382658742,-1.3065482426409472,-0.19109565097960826,-0.0009287973001348359,-0.0026980676167384214,-0.005976149811523069
1630597331227683,623423.451881586,4848820.616408784,153.51019369906012,0.0005695390584680033,-0.00013633342163712415,0.00022878368827932048,1.7446036342502886,-1.3065190684842811,-0.19145222634978912,0.0033277539528330027,0.000434681471841063,0.0014376289873278994
1630597331327684,623423.451874086,4848820.616404196,153.51027350328172,-0.0004804610959286567,4.5609969094474755e-05,0.0006607596284623484,1.7441164849729827,-1.306542787785922,-0.19098777713967993,-0.002839394439955538,-0.0019808240322260013,-0.004376098972936336
1630597331427685,623423.4518794111,4848820.616412949,153.51020319501754,0.0008909295648095125,-0.0003332797614558649,0.00038053994720006594,1.7445214367862047,-1.306508407871077,-0.19142493469390892,-0.0007466676050372923,0.0013396953472924497,-0.0011648357338222093
1630597331527686,623423.4518712587,4848820.616426549,153.5102557336082,-0.00020657904432402863,-0.0002328378684402373,0.0009101650084428113,1.7442118428948745,-1.306505827148005,-0.19105765854110832,-0.00015472032530209481,0.00047703405155270605,-0.0012174315805690821
1630597331627687,623423.451876858,4848820.616432142,153.51019744874242,0.00067692383122609,-0.0001990165576565107,0.0004424184856537565,1.744550577788849,-1.3064802380588623,-0.19141806852440302,0.001176072148880271,-0.0003222411899530521,0.0029619380402481376
1630597331727687,623423.4518750199,4848820.616412218,153.51025272362392,-0.0006871056337199417,6.428470965781429e-06,0.0007943672218570439,1.7442463593040352,-1.3065281894223808,-0.19108655951146927,-0.00013570900098011502,-0.003791872357108634,-0.0018917508050518967
1630597331827688,623423.4518766187,4848820.6164179575,153.51022677527484,0.0006776012734641191,-0.0001664812186949858,0.00032560296160480384,1.744377632115487,-1.3065068632891468,-0.19127711597212246,0.002812245138528595,0.000369341295488087,0.00857396690647556
1630597331927689,623423.4518732813,4848820.616418222,153.5102570389099,-0.0002261494211162166,-3.297470488556841e-05,0.0004794386743165982,1.7442008511643208,-1.3065144278130518,-0.19108197026227342,0.00013790849755979456,0.0004719708319595425,-0.0006792822718794857
1630597332027690,623423.4518771181,4848820.616425338,153.51020176622677,0.0010088638956592952,-0.0001412196375249973,4.0612527588073195e-05,1.7445315711893044,-1.3064905890483658,-0.1914107224095571,0.0020512178067428814,0.0004898696039897807,0.007693570125473923
1630597332127691,623423.4518768722,4848820.616397249,153.51025882256445,-0.0002392573534223189,-0.0003223204028943152,2.7781384462736153e-05,1.7441996345624031,-1.3065437011424432,-0.19112693360314967,-0.0025020064927329826,0.002115265088077248,-0.007668584767459023
1630597332227692,623423.4518872275,4848820.616390213,153.5101691801867,0.000268411254386922,-7.495577614034435e-05,-0.00013180665694371345,1.7447597107064674,-1.3065369349937488,-0.1916525980458135,-0.0016357213836567658,0.0009579388550652107,0.006304449770866226
1630597332327693,623423.4518774196,4848820.616393035,153.51027215274345,-0.0010848701180961723,0.0001202119739411054,0.0002328786143910517,1.7441075502686565,-1.3065498364986208,-0.1910609015230996,-0.0016244472851634165,-0.00032101266110118695,-0.004508529631061257
1630597332427693,623423.451882458,4848820.616393915,153.51021129273857,0.00048353460198501314,-0.0002517803556633298,-3.658374927439123e-06,1.7444575426995974,-1.3065302938010162,-0.19145167624360093,-0.00034129473024530494,-0.00028496564878747533,0.005829086727935591
1630597332527694,623423.4518730454,4848820.616402752,153.51028313325244,-0.0002653158245255907,-0.00010224282300910705,0.0003285603193194399,1.7440231239961674,-1.3065367837700073,-0.19098731140049663,-0.0018452048476316437,0.00039216828493104537,-0.00603847293479639
1630597332627695,623423.451877446,4848820.616405321,153.51023381802437,0.0007132981401603901,-0.00011927695988821088,0.000356028792390053,1.7443198636571797,-1.3065218362352486,-0.19127593153860736,0.003488100412297761,0.002747859176173518,-0.0013104493090609261
1630597332727696,623423.451879005,4848820.616379571,153.51026623712733,-0.00019546415019120454,0.00025073423957148273,0.00046765381128890645,1.7441551701952673,-1.3065707538556457,-0.19111008138595814,-0.002730373896793255,0.0028948955570185894,-0.004468924292366933
1630597332827697,623423.4518807555,4848820.616384348,153.5102529705114,0.00012828372602904597,-0.00010568206725171691,4.8384664713331906e-05,1.7442228190080062,-1.3065560617591063,-0.19120845817477522,0.0021327552192690192,-0.0007751251062726367,0.0003731653340554547
1630597332927698,623423.4518781322,4848820.616385466,153.5102665025063,-6.963762871727088e-05,-8.954531580439812e-07,0.00045637381791477697,1.7441214895643802,-1.3065532074993933,-0.1911455374281951,-0.004380080789333845,8.596898160377236e-05,0.001117438167650287
1630597333027699,623423.451883035,4848820.616385045,153.51022412778318,0.00024156455021288976,-0.000796669878464523,-7.103460400946359e-05,1.7444064354165503,-1.3065530362873086,-0.19136418312724662,0.000115084372700468,-0.0009868208634592397,0.0001057342327720781
1630597333127700,623423.4518773234,4848820.616393333,153.5102677279733,-0.00044478423968182575,0.0002490923835538196,0.0002926263134613762,1.7441367835309245,-1.3065492403065746,-0.1910893883756782,-0.0007966175939312413,-2.5124815908952456e-05,0.0012407478995523978
1630597333227701,623423.451877272,4848820.616401844,153.51025048159883,0.0004902844263904556,-1.5605820659809298e-05,0.00040818146145869274,1.744230607026354,-1.306533117715194,-0.1911707736896074,0.003161011291498262,-0.0010956529028294639,-0.002671986593442121
1630597333327702,623423.4518758374,4848820.616397804,153.5102706009273,-0.0002466713483388428,-0.0001646170665900275,6.715299672836695e-05,1.7441042220882264,-1.3065395637639965,-0.19108456137316554,0.0021430512933479974,0.0013386584899413316,-0.005304890136263543
1630597333427703,623423.4518770968,4848820.61640502,153.51024336166532,0.0004843070121159428,-0.0005025824022991515,0.0003384675806144766,1.744279241331499,-1.3065288686444516,-0.19120946470120095,0.004068842030848641,-0.0014215197108704046,-9.996531999361184e-05
1630597333527704,623423.4518786973,4848820.616385309,153.51026804806503,-0.0005762701098364143,-8.815058324494731e-05,0.00044264491928231283,1.7441696351503921,-1.306571959792034,-0.19104439692960404,-0.00035643567524683344,0.00011885762690679537,-0.007818475821332561
1630597333627705,623423.4518799452,4848820.616391242,153.51024309115178,0.000316054735360781,0.00010862533684048055,2.3879413390081606e-05,1.7442935442788023,-1.3065485096460616,-0.19122902410215128,-0.0007996775539735109,-0.0004965694961128588,0.006555573567428012
1630597333727705,623423.4518780276,4848820.616385987,153.5102698469143,-0.00017893554590695923,-0.00017127763193761723,0.000558895749687807,1.744138606249669,-1.3065647391792627,-0.1910649727596815,-0.00022929582442963913,-0.0006888187866867656,-0.003436289305082365
1630597333827706,623423.4518812445,4848820.616393293,153.5102261509204,0.00040748576134189607,-0.0008468087692687326,-8.750103449758169e-05,1.744416557593505,-1.3065494684399168,-0.19130477140193378,0.001611012253068969,-0.00017850471473768132,0.007728769350720006
1630597333927707,623423.4518754149,4848820.616408739,153.5102641207206,-0.0006297780643395366,-8.442465943134539e-05,-5.231631285281263e-05,1.7442051799297622,-1.3065432062131823,-0.19099478336288225,-0.001544362038906684,0.002410732944516877,-0.0014250207101873056
1630597334027708,623423.4518663855,4848820.616397383,153.5103602113988,0.0014481529238269805,0.0006838408894929069,0.0003276292844019067,1.7436157104598202,-1.3065790648689037,-0.1904550768985701,-0.00039173134332317217,-0.0022454210786932594,0.00867092634058422
1630597334127709,623423.4518767952,4848820.616393338,153.51028845540816,-0.0017251836029490493,9.338619224337139e-05,-0.00042764831677081556,1.7440338575034118,-1.3065579888502288,-0.19094640343753833,0.005638810439414468,0.00036126597460392533,-0.007883471914784765
1630597334227710,623423.4518613402,4848820.616409249,153.51042309938478,-0.00010148325285332642,-0.0005148687116249076,0.0007778024032459456,1.7431886312637768,-1.306571054016002,-0.1901016282433479,-0.005379397988271711,-0.0004732169783315526,0.009326938968216469
1630597334327710,623423.4518629704,4848820.616401105,153.51037797880684,0.0008774501487097422,1.3058098527887193e-05,0.0007768213211354554,1.7434791804040009,-1.3065712759737198,-0.19037401829516729,0.0012536184170889968,-0.00013833914912222565,-0.013900447670221588
1630597334427711,623423.4518756268,4848820.616390484,153.51029187752053,0.00021292980061742744,0.00028816389318450793,-0.000554241083444924,1.7440494612650312,-1.306575791213614,-0.19087540182468854,-0.002299593269557609,-0.002306873457789066,0.007147600508855844
1630597334527712,623423.4518697682,4848820.616373613,153.51040286295816,-0.001260369451054815,-0.00028262974073441446,0.0011040702096179057,1.7433480933609378,-1.3066198738523696,-0.19026491194248007,-0.0002508752656960112,-0.0022271210375567844,-0.00308642077338483
1630597334627713,623423.4518727814,4848820.616376496,153.51033227338732,0.0010382225100508918,0.0004081725395162993,0.00017585006809701828,1.7437854676358358,-1.3065993393697564,-0.19068376761018388,-0.0016876605171375516,-0.0014035660719529982,0.0036441692236093637
1630597334727714,623423.4518057496,4848820.616411379,153.51020182454488,-0.0017944317802526697,-0.002358003107856905,-0.0001955540703813917,1.7443155946613362,-1.3064231287068244,-0.1911549847528075,-0.0005599585034942005,0.0012453010874800194,-0.006560160828470805
1630597334827715,623423.451704398,4848820.616379885,153.51009456175294,0.0002328321545355685,0.0003010471237023212,-0.0011327094381006543,1.7444060243629171,-1.3062769040214828,-0.19112408136012934,-0.0017912804806291724,0.0006239025754194476,0.006777894188288951
1630597334927716,623423.4517559167,4848820.616287562,153.5099260838565,0.00047006042366525995,-0.0005595764750236746,-0.0010281488459255802,1.7448689000371862,-1.3063674622501025,-0.19141989904107107,-0.0007639189270420985,0.004388396956917089,-0.012138786309626707
1630597335027716,623423.4520154042,4848820.616150168,153.509722919934,0.005557078874560034,0.0003588676520957189,-0.0014100080276253295,1.745669752240947,-1.3066375262404821,-0.19202628956316944,-0.0011645144926703784,0.005070398390766372,0.009271137200518356
1630597335127717,623423.4531867127,4848820.615894908,153.5093332413561,0.019184627002751347,-0.00044835415444859864,-0.003378960176582924,1.7468774884852114,-1.3069869572300539,-0.19316431739846113,0.005487961904490825,0.004094075827045101,-0.018477302090786487
1630597335227718,623423.4564077265,4848820.616021208,153.50852059642705,0.0460040620996804,0.005890779781218965,-0.004995159831030854,1.7492714030635905,-1.3072248482292674,-0.19563894159410727,0.002539788730476692,0.0012989344768740403,-0.00041671036441037626
1630597335327719,623423.4627020289,4848820.616965553,153.50780359375568,0.07879205004874908,0.015616131310508171,-0.0015584564763510052,1.7514111380001116,-1.3075823659793657,-0.19776343436927987,-0.0005845002257026384,0.006109096440395609,-0.011602315793950406
1630597335427720,623423.471994706,4848820.618707214,153.50811600117675,0.10015126964838907,0.02643410959779399,0.009083833948660367,1.751781298108584,-1.308191253859476,-0.19808554611069343,3.74804205587335e-05,0.006742572813967112,0.005791202160894794
1630597335527721,623423.4819881023,4848820.621090117,153.51004190187572,0.09865982037049062,0.030622837057078058,0.012826061950075305,1.748433647474014,-1.3089910764745232,-0.19425510697904863,-0.011383120287870942,0.005614796450795579,0.016712796604472273
1630597335627722,623423.4920843004,4848820.6231956445,153.510946715815,0.10491901712126316,0.02017587397933831,0.0021815207982566233,1.7479695979817176,-1.3097902823216436,-0.19333516367022144,0.006632703098501258,0.0072268911010089695,-0.011602615444663456
1630597335727722,623423.5033574246,4848820.624395146,153.51097636302572,0.11868314783849244,0.018615931025017393,0.003014443557787056,1.749188106972407,-1.3106876545747292,-0.19483568899840942,0.0003646313510294152,0.012660301597612026,0.006635523671758608
1630597335827723,623423.5159729861,4848820.625523149,153.51154342944866,0.13193249710006025,0.02061047881748692,0.005310334421544757,1.7492666902294562,-1.3118328838962385,-0.19508788668467297,0.0021055344074274213,0.008607102078184973,-0.0011348352792463795
1630597335927724,623423.5300628962,4848820.62694741,153.51208459940278,0.14862973154674564,0.028444850349161603,0.003892984450213527,1.7498173545777354,-1.3132285842340627,-0.19578706715541097,0.0044465257132424146,0.014892589658236739,-0.001428063251182862
1630597336027726,623423.5463672271,4848820.629057079,153.51232447987266,0.1756090038624739,0.0364570450919392,0.003088252630786684,1.7516756496575556,-1.3149231506305532,-0.19756653445641414,0.0010129636729938045,0.019457783496825677,-0.0011932862167234333
1630597336127727,623423.5660614312,4848820.631756917,153.5124811421178,0.21759127515091384,0.04509288235874139,0.0019277487897765913,1.7540316122557484,-1.3169342962829458,-0.19978933517587324,0.0012303814031276194,0.02542734694629162,-0.012570774858939184
1630597336227728,623423.5911770393,4848820.634667797,153.5122183043438,0.2827114604085306,0.05188062227204103,0.0007207558649093854,1.7585839915884673,-1.3195905013927227,-0.20419367389007007,0.001958855698355784,0.03564289578308221,-0.011531466580304676
1630597336327728,623423.6238477866,4848820.637857154,153.51211242684138,0.36432438660923466,0.06435200129570218,0.005068799174067586,1.7634954199675612,-1.3229639380239953,-0.20940218056076143,0.004725718014905419,0.04018653778902541,-0.005793055172202135
1630597336427729,623423.665043481,4848820.642547433,153.5130184483749,0.45185730289064213,0.09033133504474658,0.012279174960949036,1.7669216161661394,-1.3271740838706692,-0.21260752779430128,-0.0069241201007648814,0.04807506021482815,0.003285034231926828
1630597336527730,623423.7153186186,4848820.649006017,153.51474526617602,0.5424109501315676,0.10858679576073707,0.01821402037428781,1.770485932331122,-1.332724976796267,-0.215352223127039,-0.004454063935159671,0.0643204473319051,0.007082960019998495
1630597336627725,623423.7744945501,4848820.6551580345,153.5172236841175,0.626408589446847,0.09729773875933016,0.025115447489651846,1.7744294472229558,-1.3392168923181036,-0.2191092248572918,0.007036188385844325,0.06656535735075561,0.0009423231876683433
1630597336727723,623423.8413081178,4848820.659033773,153.5200989801086,0.6951241422806568,0.08040696593166544,0.026370592240642726,1.779524388395989,-1.3463579177460467,-0.22514806813202284,0.02011108645234558,0.0800535820631452,0.006418777094565687
1630597336827724,623423.9149803962,4848820.660476993,153.52220547183103,0.7637666605461764,0.07384140740310177,0.020253009889529296,1.7891396896704213,-1.3550793911864896,-0.23690120717293373,0.02927817575151127,0.0961283060870072,-0.014197411102813567
1630597336927721,623423.9960784467,4848820.661481018,153.52352833113878,0.8430962679446712,0.08408283095708821,0.018296636935513134,1.8034241877766366,-1.3647277512080687,-0.2534326113670768,0.02211332130954749,0.10378154316247004,-0.009303862219951695
1630597337027716,623424.0855883178,4848820.664182564,153.5248339141324,0.9328574821513385,0.11641493763173308,0.017433000706916557,1.8194055770202944,-1.3747534774120276,-0.27062060366514923,0.007506523968124799,0.10974759053209186,-0.009290535511554843
1630597337127717,623424.1844820763,4848820.670119869,153.5262556788679,1.0293424401904867,0.15260836715018491,0.01547536467264413,1.837630001423832,-1.3859953249313515,-0.2879111567335406,-0.005630656042795021,0.12644262473657067,-0.00046733251026984324
1630597337227718,623424.2929905615,4848820.67763615,153.52760457919243,1.1231642621735407,0.16058705059826103,0.011635494425446126,1.858909807260875,-1.3985460729424066,-0.30722683356130687,-0.015571337490251356,0.1349149118679076,-0.0016561936340528658
1630597337327713,623424.4105759758,4848820.684063814,153.52844706343984,1.2151972515384364,0.13972506847241425,0.009048213857961881,1.886677958599901,-1.4115843096155063,-0.33268142151067315,-0.017383546993742446,0.14071511306762138,-0.002133498657535309
1630597337427714,623424.5374946891,4848820.68717925,153.52916653772917,1.3110435643180895,0.10739091604312252,0.011769411867301093,1.9200834493034775,-1.4246060257857056,-0.36515106428919775,0.0053691557708142,0.1381230480890458,0.0010948635817141286
1630597337527714,623424.6736988112,4848820.686697744,153.53082418978724,1.4014130739873256,0.07680496920245337,0.020796397557665706,1.9563077366978474,-1.4378736478405105,-0.40242162681474253,0.022444665040210438,0.14112415722736377,0.009621114421655022
1630597337627709,623424.8183229002,4848820.683376209,153.53342828645125,1.4849748312383964,0.049552161458196714,0.0286091026469086,1.999641404206505,-1.451140168251548,-0.44728999443421735,0.020590002806365998,0.14226050866227094,0.007750654154025486
1630597337727704,623424.9711644287,4848820.678021495,153.53691790504465,1.5687579930631033,0.0413384582056954,0.03142123005597134,2.048223325615932,-1.4639260334906419,-0.4981384560576326,0.027567003422235763,0.13611926144919748,0.012375626738349913
1630597337827702,623425.1321388469,4848820.673745926,153.5402265368678,1.649893643100052,0.06258069823753998,0.025001919477026083,2.107372633427357,-1.4762932270475582,-0.5586443660213875,0.008391917922272422,0.13883179105743426,0.012121274084074563
1630597337927700,623425.300887735,4848820.67221935,153.5429371878946,1.7266626161596197,0.0875807230113852,0.019848612322801253,2.185543951613579,-1.4880696748233984,-0.6361571076038288,-0.013070256152177861,0.1323430929986624,0.013997182065924905
1630597338027698,623425.4773329496,4848820.672229144,153.54529556209908,1.8061384554340445,0.07847063899599743,0.019157201694857677,2.2822496747512613,-1.4986518519498537,-0.7309563197947608,-0.012075321687611306,0.12144856900229528,0.020971654567220416
1630597338127698,623425.6618799438,4848820.669783307,153.54871814565786,1.8909354163284116,0.026804240142978372,0.032226214146807444,2.3881823159872715,-1.5078505591100118,-0.8361244002682752,0.003917040828529273,0.10737931848720758,0.02354792144671207
1630597338227693,623425.8544757682,4848820.662700522,153.55362234976914,1.968872422396841,-0.026095599580320802,0.046226938667233895,2.495897653185752,-1.515347060426306,-0.944722818075531,0.016933736510811384,0.08769437306187838,0.03717947245121699
1630597338327688,623426.0544534805,4848820.652836572,153.56021707561175,2.0360464807915166,-0.03478171085866559,0.05158103517209487,2.5984477316017642,-1.522027793417099,-1.050161736641481,0.02693717303968889,0.0721758534257386,0.03909850504825669
1630597338427689,623426.2602880958,4848820.645248327,153.56574162218064,2.086519389739043,-0.004700582919024011,0.03582690073812587,2.7116495914983987,-1.5268490425390313,-1.165354798505573,0.024428801663430953,0.061833191416616716,0.015819130860569474
1630597338527690,623426.4711769198,4848820.642309918,153.56917128929553,2.140173059424966,0.028009138083922108,0.02666198102079763,2.824816377625654,-1.529270038441709,-1.2784296340663137,-0.016492991967818893,0.043998162484799756,0.005566029527059961
1630597338627691,623426.6881029598,4848820.643006751,153.57178928665806,2.2038564246710193,0.04118962134071623,0.016569448993958638,2.9064410175610353,-1.5306825884164885,-1.3586631706134178,-0.021009956781451088,0.029878363381379874,-0.004380576652587777
1630597338727692,623426.9116266572,4848820.645223801,153.57322564107074,2.271931958030923,0.04202950700915622,0.011676421577225066,2.9618435736527537,-1.5311921486566156,-1.4122239531024485,-0.015042100413447035,0.01768712870759841,0.00671854916166479
1630597338827692,623427.1428070776,4848820.646557091,153.57497613119193,2.3551746644051224,0.02048137618173726,0.01885741894302135,2.99792429258191,-1.5316992589943428,-1.4475632802861436,-4.721344664548527e-06,0.006622908031659551,-0.002224589715853715
1630597338927693,623427.3822537763,4848820.6458664825,153.57790650847065,2.4347966596110373,-0.0031962176548159943,0.02523880741249033,3.0106250809983703,-1.5327686194755372,-1.4607959911277586,0.0031348013545945395,0.0005414661630890659,0.021401810467705663
1630597339027695,623427.6292658796,4848820.644294388,153.58077388785316,2.505952712877629,0.0030282116577393103,0.02263025993845451,3.0109920626739775,-1.5335697628397493,-1.462153930712348,0.00893740557531804,-0.0002582911346387974,0.004889669149466544
1630597339127696,623427.8830269566,4848820.644786338,153.58347605666285,2.572776395819231,0.034166137430249835,0.024001256134417392,3.0141272466695566,-1.5340713336879468,-1.4656980774862816,-0.0074849738253694575,-0.000806604848203682,0.010043034410144737
1630597339227697,623428.1436045368,4848820.6482543135,153.58608831854625,2.6401316541242354,0.04550677861644378,0.021531346515340923,3.0076501337255634,-1.5343576198169067,-1.4577994070260094,-0.0158498532775338,-0.0022439473166652505,0.006393575942680969
1630597339327698,623428.4109442026,4848820.651706332,153.58829758328216,2.708036026509296,0.04233108012070337,0.014961751818664056,2.9905735625031618,-1.5346030318226265,-1.4401106901123937,-0.007075119879008355,-0.0048543752889473974,0.006869525645612254
1630597339427698,623428.6852639279,4848820.655536467,153.58964342978783,2.7787237667477522,0.046561429005507055,0.009870529123931923,2.969020316090349,-1.5346907549396995,-1.417525071295285,-0.007422209008052971,-0.008933993441407764,0.0071131133756892
1630597339527699,623428.9665019808,4848820.659431715,153.5918438392372,2.8440018636132427,0.04847516995708488,0.02129913537203114,2.9327758071012466,-1.5353758860307574,-1.3811825787164436,-0.003944352934164135,-0.015322867683479882,0.014724631564412375
1630597339627700,623429.2539519273,4848820.664920859,153.5947024231178,2.905659310798736,0.06795722316445195,0.023307137588610333,2.8858691789133335,-1.5355958163780852,-1.3332836846396725,-0.01646134913813266,-0.01612942683912903,0.014923249245292983
1630597339727701,623429.5472372964,4848820.671481995,153.59747926242562,2.9544417234370264,0.06519416623701701,0.019684419539357505,2.8374099262103964,-1.53589244130552,-1.2836550956643928,0.005328892000483783,-0.01767529015725111,0.005824699758062087
1630597339827702,623429.8453364194,4848820.677467812,153.59864077264692,3.007739160255603,0.06278278049313477,0.0128932843202813,2.794072758356848,-1.5345654285775792,-1.2403034280919158,0.01749765397317093,-0.024315312955981407,-0.003595496522932507
1630597339927704,623430.1495301733,4848820.683754477,153.59951608800833,3.0801269373843327,0.05175090959921365,0.009561169530627231,2.7331741821765103,-1.532973332298317,-1.1791999055707802,0.01572648339299298,-0.02764281024019918,-0.010092185114227445
1630597340027704,623430.4610451736,4848820.689719336,153.60096739681634,3.1426907077374837,0.08124709513557966,0.015944017006948648,2.6537331113367393,-1.5321329705098419,-1.1024030764082249,-0.005903686064623809,-0.030227616150671575,0.011922340384576433
1630597340127704,623430.7777101242,4848820.703212856,153.60359829644872,3.1908419786327964,0.15117884134029144,0.026258642873345214,2.5641630208949477,-1.5304391624181317,-1.0103765290954732,-0.03947584806251255,-0.04459872294741722,-0.0029137182791308083
1630597340227705,623431.099507874,4848820.722642515,153.60629740519715,3.2418688788202132,0.20151622003844472,0.022471929052436883,2.4758855554124444,-1.527515797991761,-0.9188982699927919,-0.05908271352703894,-0.043258354871715025,-0.00518842815440428
1630597340327706,623431.4267244103,4848820.746974903,153.60834995177984,3.2976764929273026,0.224966372150078,0.014574967781061078,2.391329084169634,-1.524451190713345,-0.8287862241462982,-0.0668514098827263,-0.04544067501440887,0.006942049935600456
1630597340427710,623431.7591651507,4848820.769977806,153.6098828239215,3.3489530465089072,0.20844963274044717,0.009389397305158628,2.32780193872367,-1.5211214649547442,-0.7621295574719421,-0.022899160664266838,-0.042664754329449835,-0.0097253208868253
1630597340527711,623432.0970489582,4848820.791969659,153.61102470410964,3.4067098474557325,0.20168616450241056,0.02084521661990907,2.279279997827723,-1.5179055366855037,-0.7104390636668177,-0.008264645906693862,-0.04462575608812139,0.013350043498741663
1630597340627712,623432.4403863406,4848820.8117766,153.61460587386793,3.454614007631424,0.18703937866575485,0.03429585338613971,2.2210218694147104,-1.5151744730700365,-0.6524773478479946,0.027987322655630482,-0.037729481108301766,-0.007023112958788198
1630597340727713,623432.7872460257,4848820.832331317,153.6181674054074,3.4722206003272853,0.20926479455705752,0.036578924349752746,2.1867607790458803,-1.51208829088771,-0.618079140001009,-0.026397591111080365,-0.03799344941770767,-0.006469882048878758
1630597340827713,623433.1352769893,4848820.855035802,153.6208527702565,3.489066074328407,0.2350853511847732,0.038605914570810765,2.177492753124585,-1.5084674948608885,-0.6066529945505807,-0.028551731943244157,-0.027141810158962422,-0.054713495867639864
1630597340927714,623433.4854074217,4848820.880603526,153.62355138687155,3.508535005034911,0.2788995714207003,0.04766046242543828,2.195108518098063,-1.504787522043865,-0.6220686775164881,-0.011841078884934656,-0.020366588736100314,-0.03659481225441142
1630597341027715,623433.8376014251,4848820.908803497,153.62629273465353,3.530378423894855,0.29153017053146046,0.033130517576974675,2.2117015117557255,-1.501895856347698,-0.6356162679190905,-0.006181542123478981,-0.015462409966612092,-0.056981711365220684
1630597341127716,623434.1929599377,4848820.9354491215,153.62778586292356,3.57306118456204,0.25007567979468714,0.03320730767253838,2.236885974992832,-1.4991779882864282,-0.6583724413029862,0.012578008434346302,-0.014846436463603249,-0.020980168678877118
1630597341277717,623434.7342380141,4848820.96889372,153.6296394553149,3.6385489548373777,0.22267690899272907,0.026036483159605606,2.2566530642331895,-1.4957114819062431,-0.6783280336174564,0.024249019980419832,-0.00787644727444275,-0.016381995292829934
1630597341327717,623434.9169766803,4848820.97924147,153.630565382824,3.666553439695621,0.21874197382908453,0.03521853572441,2.2618049345766433,-1.4948347607149939,-0.6843382182499691,0.01877576853259303,-0.011306813590492393,-0.018613899681882973
1630597341427718,623435.286072657,4848821.001003248,153.6345508503424,3.7123049864498934,0.24768240080700013,0.056061640602727086,2.258484372631036,-1.4937161042240974,-0.682624806682256,0.0063801853320838335,-0.010804755501001146,-0.01911941215693338
1630597341527719,623435.6590480315,4848821.026902679,153.6424424544372,3.7442688975580993,0.2862706804531717,0.09452222186432757,2.2487433449764187,-1.493176312635994,-0.6714384457639005,-0.022511207045418504,-0.009164206079908047,0.0037289058935702636
1630597341627720,623436.0346377146,4848821.056006645,153.65314119662327,3.766680705138859,0.30779329901441116,0.10498836627824454,2.23605175608576,-1.4927592347372618,-0.6563990660469606,-0.02399586785598294,-0.008845614907101682,0.0039767450853781675
1630597341727721,623436.4128529758,4848821.084551844,153.66345288005198,3.79407352428883,0.2750788816219388,0.10064175132730664,2.228434069925268,-1.4917909913790888,-0.647518506382151,0.00871301584514688,-0.016702755017528294,-0.007503960315039038
1630597341827722,623436.7932432169,4848821.109663894,153.672443368572,3.8125730626262264,0.2503524435003305,0.08357844397059692,2.220012929435904,-1.4903677688050472,-0.6397649308599147,0.01852383054173722,-0.01578962765100115,-0.029494518673031992
1630597341927724,623437.1755326784,4848821.133308637,153.679088276565,3.831443854502714,0.25325820938871546,0.07231003018343111,2.223565247540955,-1.488142689083375,-0.6455166377238459,0.027902811303528206,-0.017795198748959535,-0.03527106851482661
1630597342027724,623437.5599370472,4848821.159420169,153.68473663001342,3.851837100968535,0.2766407777541213,0.07207750325978501,2.2304850685341986,-1.4852087476106182,-0.6535060367711253,0.0150870512423064,-0.026499300439116226,-0.03539494546922727
1630597342127725,623437.9462403582,4848821.188577073,153.69075733014046,3.8722955113974424,0.30656142793410085,0.08638379523205253,2.2330915535707665,-1.480913711826501,-0.6570119133068467,-0.011810384019776764,-0.032227106579362064,-0.04052158967546629
1630597342227726,623438.3352636894,4848821.22237945,153.69893540437926,3.904186414070636,0.35013879541303755,0.10743689193307426,2.2289517092603757,-1.4763376415333331,-0.6521245165606206,-0.018260499540308082,-0.03903756245107155,-0.03274909586771853
1630597342327727,623438.7274032393,4848821.2597303325,153.70959804666438,3.934602038143683,0.3728573491833736,0.1154095711520989,2.214225754618006,-1.4722971717593971,-0.6366136492225838,-0.011628334028992963,-0.043542104980932285,-0.01028441780247426
1630597342427728,623439.1229001521,4848821.297778642,153.72035145129104,3.9734868084364154,0.35956109047338153,0.1105514213224445,2.1935551341176223,-1.467994218344462,-0.6157337602073161,0.018363569920839845,-0.04895837694429713,-0.008926323627928164
1630597342527729,623439.5222030404,4848821.334782329,153.73114454342078,4.007236617667294,0.3727198961042921,0.10461470655359886,2.1668685091399436,-1.4644104298470186,-0.5906547882072158,0.00780302820215181,-0.04164712957963067,0.0107908167624435
1630597342627729,623439.9244302122,4848821.374498532,153.7418536114911,4.036547135710997,0.4175712154125358,0.10661333285813512,2.144143408391722,-1.4616116944539148,-0.568624461685907,-0.007029407847633775,-0.037692065870624354,0.005107302295325462
1630597342727730,623440.3307801423,4848821.418060306,153.7544628658517,4.099975195466188,0.4467884246852105,0.11809348624245097,2.1120658202488234,-1.4596934095043868,-0.5360433888664837,-0.0019033735277617949,-0.0318093741953558,0.07021822360197419
1630597342827731,623440.744307019,4848821.464698331,153.77032807683915,4.158757614687858,0.4905587456931491,0.1116116688967595,2.039515775787205,-1.4599624835784093,-0.4631120758853334,-0.024371120964757367,-0.03844248946427908,0.11767304221393753
1630597342927735,623441.1572528298,4848821.516717963,153.7873261485599,4.081519976213841,0.5165892299713521,0.1410768146680126,1.9676987698583197,-1.4595297209322582,-0.38699809981472577,-0.04550940724395406,-0.04005216785776722,0.05724696654608968
1630597343027736,623441.5583168289,4848821.567236062,153.80222857688776,3.9446302293814415,0.48299109014795083,0.16534787741866674,1.9671493071017685,-1.455817357727916,-0.3846463689290773,-0.0042057772436443815,-0.03264063363478662,-0.1025808636988878
1630597343127739,623441.9503631679,4848821.614034547,153.81337791800254,3.9054525946064125,0.44977477718378833,0.15138280636475038,2.016295610284196,-1.449409911641352,-0.4336855399696179,0.013945385372663857,-0.04479097181484278,-0.10691996918670514
1630597343227740,623442.3426700372,4848821.658766895,153.82303557181976,3.932143559414983,0.45285761764500054,0.11493356753983125,2.044312027373409,-1.4433642974828977,-0.4637871275581312,0.02831859663918355,-0.038136629837966715,-0.056333902552130395
1630597343327744,623442.7364474826,4848821.706417113,153.83106789804515,3.926248716585413,0.4912415837855039,0.07010281286643755,2.047147005520013,-1.4389892408379659,-0.46749716127030144,0.011032366979418977,-0.03669104111612955,-0.008172681244768895
1630597343427745,623443.1269711693,4848821.757386867,153.83228483522575,3.872109453985785,0.5300975242472923,-0.0027417715586070257,2.0564634552048426,-1.4342922189495364,-0.47705760797792607,-0.006351418343017018,-0.03861633373040004,-0.09405574536782357
1630597343527746,623443.5128575705,4848821.813633945,153.8290821230698,3.8524597499285234,0.5878802435138041,0.04190601451457998,2.0816496902349693,-1.4291206912474494,-0.49969501059014554,-0.02038930672599163,-0.02238381748538724,-0.043180445785681726
1630597343627747,623443.9002209811,4848821.874076254,153.84247865329908,3.8964758757145534,0.6048741679594767,0.21515929787153978,2.0664730390922323,-1.4273634657230192,-0.4805404867344524,-0.054692662357686536,-0.03376708855418852,0.07819348069016385
1630597343727751,623444.2901282957,4848821.933723316,153.87490868234062,3.8914711321875264,0.5625140275503862,0.29618872688335,2.0034773011607263,-1.427375281394141,-0.4140218134858039,-0.03457063551389393,-0.03651832075553422,0.1432694451626852
1630597343827751,623444.6756079749,4848821.988278562,153.90673655323062,3.813048154780503,0.5282276250662238,0.22203588545316602,1.9441743135491583,-1.4270247315731437,-0.35558275100243714,0.01910082909458277,-0.028611287183606404,0.061927439984403095
1630597343927752,623445.0514898552,4848822.040859113,153.92345056915374,3.708329828756669,0.5270411182750347,0.10051240236630941,1.9273244279493127,-1.4245430898529703,-0.3408016221241116,0.017749738167855095,-0.0348707584592734,-0.01484190350828261
1630597344027753,623445.419249017,4848822.094927137,153.9276310040685,3.6507730425125176,0.5459915489561902,0.038750985298669216,1.936451626779695,-1.41965408955405,-0.35135946795996253,0.016578733617778976,-0.043686122237269656,-0.059114100519365824
1630597344127754,623445.783179485,4848822.152787161,153.92963052112336,3.6279190754724424,0.5923717288068382,0.056490550358478525,1.948416581340359,-1.4143948555602637,-0.3629767365955266,-0.01609040319098274,-0.04066703805235194,-0.04423084396668768
1630597344227755,623446.1462591932,4848822.214219938,153.93626940491617,3.6337544474710306,0.6187484456851001,0.10135062039633944,1.9525755040560744,-1.4103746742993262,-0.36555128549607874,-0.01402383568362578,-0.034906232125492175,-0.013746732758092097
1630597344327756,623446.5107770982,4848822.276942497,153.94834593458393,3.655979356588938,0.6213783096550038,0.13272054022574012,1.94521724303085,-1.4073256312180709,-0.35686958053241175,-0.009377223196560458,-0.03236277416368592,0.021394343101603853
1630597344427757,623446.877853777,4848822.338873683,153.96243846510944,3.682474309901971,0.6075481174627726,0.12681057941222337,1.930859163731295,-1.4046567243592516,-0.34236761458880355,0.003154691790833128,-0.02962080160550169,0.023646317545665374
1630597344527757,623447.2471338068,4848822.3995278,153.97478873683187,3.7015767370118153,0.6076905930360549,0.10966227533136627,1.9188566380435808,-1.401784922876284,-0.33168862005497085,0.009036247650014212,-0.030845680739045107,0.00486384106547037
1630597344627761,623447.6186041939,4848822.461302328,153.98530913817322,3.7254917000935883,0.6299299285140871,0.10006000635554954,1.9115066777027994,-1.3989430484232652,-0.3256462130908806,0.021242092810188865,-0.030079856286987415,-0.001333345432282277
1630597344727762,623447.9929383758,4848822.526192234,153.99500763084663,3.7611888237705595,0.6680661173138913,0.10089211509451126,1.9084431016578185,-1.3962622758801473,-0.3228154456467459,-0.006183029508836741,-0.023749441269229298,-0.006662097992082121
1630597344827766,623448.3715282615,4848822.593605809,154.0057155365676,3.8082228572538765,0.6889046787805473,0.11108601237397431,1.9034568843156503,-1.394252249700648,-0.3174546532413237,-0.0058735872504460775,-0.020384807718864306,0.010506344040991076
1630597344927767,623448.7551182654,4848822.662075859,154.01778400151605,3.8591445787414247,0.6890485847280932,0.11578992015129583,1.8945526198337246,-1.3927261132129087,-0.30822737943421435,0.005439216998696322,-0.013562804703376834,0.01947697172164785
1630597345027769,623449.1432075654,4848822.729678989,154.02984287735848,3.8983175384906703,0.685919991525739,0.10742778040214343,1.8842226205800803,-1.3914146617719338,-0.29913832726503775,0.007827634014809213,-0.016408995474035893,0.009377519067847749
1630597345127769,623449.535601816,4848822.797677807,154.04061376149411,3.9504878237911187,0.6899951997252575,0.09588836827490393,1.8759075332208373,-1.3899857220791796,-0.29144266812000036,0.011171503008822616,-0.015773768952454876,0.019238172232550126
1630597345277771,623450.1327242885,4848822.901310747,154.0567743056038,3.994602037802388,0.7268392812326863,0.09637865149904265,1.854106611880773,-1.388918781565057,-0.2725949832917046,-0.011850269060136202,-0.008372142834752929,0.00706640154275018
1630597345327771,623450.3323571408,4848822.93752352,154.0623979318203,3.9897760624070187,0.7476050086149021,0.10323893806249812,1.848632170078088,-1.3886941168784928,-0.2665848095030178,0.0036252416468575315,-0.010926357086575751,0.020393820425633438
1630597345427775,623450.7309581984,4848823.0119584,154.07368334048886,3.975548973245559,0.7650302610741625,0.11429639675461084,1.8446135917101039,-1.3879846409501935,-0.2614952619204518,-0.016638612805676873,-0.007547737804376469,0.003934275136407118
1630597345527776,623451.1281267988,4848823.08768212,154.0852419230117,3.9620670091151933,0.7715211672403816,0.1116374073610451,1.8439624224215712,-1.3874007673794548,-0.25857334865916876,-0.030656738790650746,-0.001636625592753448,-0.008675098325463251
1630597345627777,623451.5246876748,4848823.161375658,154.09549786936708,3.9671216367801145,0.7348242331966656,0.10364871510718733,1.8487129554475763,-1.3869688954771873,-0.2619737894772916,-0.00271939100238676,-0.0009203011142511152,-0.0016366703290330929
1630597345727777,623451.9222836397,4848823.230641296,154.1053053757274,3.9727055538069793,0.6961437988163273,0.08007313197290339,1.8444458360514444,-1.387152699964078,-0.2591389546758576,0.02526405858791995,8.192068507024202e-05,0.02123849780824054
1630597345827778,623452.3189236404,4848823.29714353,154.1117054582227,3.9510759812813,0.6776426817779481,0.05606669188425367,1.8453814079730553,-1.3870753951399786,-0.2627014776240297,0.0172849591337791,-0.0007884954226744904,-0.035301107494185836
1630597345927780,623452.7136332055,4848823.362951639,154.1174531526065,3.9400726417163656,0.6817052435697976,0.07657358920551782,1.8497437703143842,-1.3866604570552779,-0.26966308450255666,0.0010273841146995271,0.003009550010684715,-0.026290280940142782
1630597346027780,623453.1076024581,4848823.431385118,154.1267803194754,3.928363107829584,0.725399594767896,0.10791722292427447,1.8494462508523528,-1.3869484758226656,-0.26996788336110245,-0.017766372866493473,0.005918886309403504,0.020901253497137343
1630597346127781,623453.4995203557,4848823.504182119,154.1392513952689,3.899135498030034,0.7686533718109287,0.12494469670867371,1.844377323242272,-1.387631170396037,-0.2637519671087355,-0.027918249610089572,0.004269275064519051,0.002765891185534324
1630597346227782,623453.8879915075,4848823.579725289,154.15228420619567,3.8642844240635,0.763194312779886,0.1182022432812804,1.8412513960390928,-1.3879096025287365,-0.2574324681197478,-0.03176154473080118,0.00408179409749031,0.013810877267886103
1630597346327783,623454.2734289801,4848823.652208757,154.16248716836907,3.8404813574583674,0.7139179785216314,0.08031321576271512,1.8395019362035308,-1.387771010301705,-0.2542783789270831,-0.007820943574583081,-0.0036905235050604876,-0.00685196589204103
1630597346427783,623454.6569110418,4848823.718933651,154.16936521199338,3.826610252591997,0.663433032362579,0.06422640918690885,1.838831020435108,-1.387556853730664,-0.2551180728422147,0.008826827564970916,-0.0025450581787817136,-0.01219052648235652
1630597346527784,623455.0400231942,4848823.782681418,154.17657501077946,3.8425016027103553,0.6550171749930723,0.061907123138373876,1.832088296222425,-1.3879844289154504,-0.2506345841113917,0.004639470908755764,0.005329703106679872,0.02975357099562811
1630597346627785,623455.4226238374,4848823.844180842,154.18605906767777,3.767801031281387,0.6085386194213404,0.09065701999358426,1.8077957657093626,-1.3889247268730964,-0.23023599109334855,0.04341723652025208,0.00447402791264256,0.14550970033321833
1630597346727786,623455.7951899789,4848823.903615498,154.19627959862888,3.6756625830598386,0.6435073514649101,0.11018345958531328,1.8028347028695835,-1.3892853045975766,-0.22994287423410423,0.00904186377870609,0.009955679963629364,-0.06872923643466582
1630597346827788,623456.1602246248,4848823.967277334,154.20556048233223,3.6190473679174384,0.657385332852411,0.12935825665353,1.8281938226637988,-1.3889929994749575,-0.2549793816131542,0.03199992789502519,0.0033219759930089424,-0.009096893657581187
1630597346927788,623456.5208371023,4848824.031839004,154.21627381912256,3.5843445479745206,0.6876522160411771,0.10813579344330511,1.839355503285985,-1.388256757733114,-0.2682593721271323,-0.01786917881479789,-0.01750683532327892,-0.05582543099007438
1630597347027789,623456.8795639595,4848824.099231848,154.22326824160064,3.597721148583142,0.6477704136012429,0.06686192032669247,1.85742010968019,-1.3862091922362605,-0.2833013924826161,0.026961267900550305,-0.0025679513560285332,-0.010512178203140812
1630597347127790,623457.241069133,4848824.159616706,154.2293523426045,3.613189364455423,0.6253871378820681,0.03456527580124842,1.8444346627406965,-1.386647407060846,-0.2749415792408406,-0.004865127395711097,-0.0027092217278040587,0.06041898213884605
1630597347227791,623457.6011216138,4848824.221242531,154.2317701982801,3.5720409391004972,0.6341061711319885,-0.0076766473450085165,1.8341976281073538,-1.3869447670259776,-0.26545976299110907,0.019718518904283982,-0.006578223017883932,-0.02068533809678124
1630597347327792,623457.9576856666,4848824.282812317,154.233181914649,3.575737647992907,0.6353196991048271,0.060590068104788924,1.826233976502523,-1.386536361162276,-0.2600243171887056,0.025231721320346404,-0.01154516777222613,0.043656760129731804
1630597347427793,623458.3157167127,4848824.347550687,154.24804998828466,3.5831931764514815,0.6792594142251659,0.15734695458972947,1.796060223483232,-1.3864129105576228,-0.2293660836647677,-0.06960132826267823,-0.006332806472817285,0.11236620620236532
1630597347527794,623458.6726028139,4848824.415334133,154.26923982172258,3.556438633798648,0.69905565399027,0.15096802238697926,1.7528170823484537,-1.387675629724022,-0.18381349033486435,-0.007671299965117199,0.004228260743577609,0.13082699711602508
1630597347627794,623459.0251976211,4848824.485735245,154.28657120713413,3.485366629825756,0.7406222187402994,0.11513487693054533,1.7204052187449412,-1.3891011544536103,-0.14817388445404053,-0.07390633766935215,0.012539558447278347,0.05601218134777851
1630597347727795,623459.3688425082,4848824.555250117,154.29697150401807,3.3867979208810435,0.655531764777743,0.05985153197136523,1.7132343327523918,-1.3898754656562935,-0.1356182994405648,-0.000908397499584533,-0.00037304086353895187,-0.02041636273405974
1630597347827796,623459.7041832652,4848824.613884612,154.29687553007028,3.3083901683576014,0.5787036305896229,0.011843741126218214,1.7386093561030416,-1.3888402402523474,-0.16383573010874883,0.04275793307742358,-0.00437787317508273,-0.10798684040371728
1630597347927797,623460.034430106,4848824.669116918,154.29310854708964,3.307010520287637,0.5596209114763279,0.005562725387247072,1.7782121406999605,-1.3872714085978708,-0.20479586742056263,0.07956612162422845,0.00299092317737196,-0.09123778960187755
1630597348027798,623460.3680309539,4848824.723633343,154.29155010935696,3.3469268263547582,0.5912524678899979,0.012470176130996921,1.795989807143404,-1.3874893641170634,-0.2263837261184328,0.0014809660890837861,0.015992167584015993,0.0036520187712063335
1630597348127799,623460.7039250045,4848824.781793524,154.2933630754273,3.3610540976913716,0.6034136086544722,0.01752092145053996,1.7963303121923977,-1.3885226301913294,-0.22663086368213947,0.014183230814558042,0.008426623501808023,0.0028219815909484667
1630597348227799,623461.0401014364,4848824.840282047,154.29509154345752,3.352390916548789,0.6257775341369954,0.01225376659570597,1.7972919520017496,-1.3895599475900016,-0.22880651786064374,-0.00043222445334599387,0.007910432436793837,-0.010672290639779225
1630597348327800,623461.3746637754,4848824.902970051,154.29495129456208,3.3319450419857857,0.6699007638712774,0.0009137636445466918,1.804499262749489,-1.3902598308267375,-0.23341463138485952,-0.03150017043605698,0.012330988903871583,-0.0355662339077002
1630597348427801,623461.7091129282,4848824.968723477,154.29612510930448,3.3605133787376995,0.6707003487857376,0.050746250386762476,1.8145642720516986,-1.390963372495595,-0.23954605621907538,-0.03444368621757744,0.005648829170556538,-0.00326230896175043
1630597348527802,623462.048290424,4848825.031666627,154.30614713354606,3.4142388772872163,0.621097861056831,0.10169598872770834,1.7982397826846133,-1.39181403232167,-0.22144248314169776,-0.015124754550580358,-0.0017126040248521077,0.07388602746625604
1630597348627803,623462.3911539107,4848825.091039721,154.32122794448532,3.4360002637988662,0.6104844056734792,0.12868542332738503,1.7697068789349775,-1.3933126033320837,-0.1926039423998371,-0.017439744803280924,0.010454742102600128,0.1072148217528706
1630597348727804,623462.733582694,4848825.148853881,154.33466633869602,3.4007021292396042,0.59666084504989,0.06857727749652495,1.745499602460229,-1.3953171804173559,-0.16930043884782822,0.024177740027483824,0.010978084691691193,0.016806534312233723
1630597348827804,623463.0725099458,4848825.204856304,154.3378737167739,3.3821428751870397,0.565162675136138,0.010067714071073153,1.749507205272775,-1.3956771157676073,-0.17498416795998406,0.030562014491972364,-0.002033108164337664,-0.013756134915118973
1630597348927806,623463.4127103854,4848825.257806958,154.33648005973006,3.4196932641974906,0.5407671925183742,-0.016728546260989994,1.7558178017651962,-1.3953585908617934,-0.1842587226047732,0.030533886671254257,0.0019135745991767734,-0.02605613850136833
1630597349027806,623463.7577650987,4848825.310118597,154.3348342183102,3.480246430384184,0.5555437556605278,-0.017304070399140902,1.7540947748001743,-1.3964069648516322,-0.1853588677870347,0.009640207761975429,0.0175163450355398,0.05218336557781884
1630597349127807,623464.1093498187,4848825.363396718,154.33681709385013,3.538004433187706,0.5829052893858628,-0.0021681141251363237,1.7257559049622242,-1.399212692842504,-0.16147862505530863,0.0163068397597814,0.02470540732433591,0.06314365067346435
1630597349227811,623464.4634097929,4848825.419186986,154.3404403060007,3.542761261290898,0.5630932389000967,0.016150932125006012,1.7015375057539612,-1.4006648529358228,-0.13892682112190866,0.053165910924002385,-0.00016667107448718602,0.052402016004403126
1630597349327815,623464.8172299858,4848825.473398669,154.3437503261603,3.5245125784722062,0.5976802660736563,0.01868917319659212,1.6847926497960874,-1.4008660075441253,-0.12751477129923575,0.020645115477501284,0.004096570926829682,0.010694740814017202
1630597349427816,623465.1684838352,4848825.536584243,154.34623597400935,3.49329591896444,0.6873112574645983,0.04829664395668363,1.6920501219580852,-1.401737784920116,-0.13068165060512135,-0.0048494981812398676,0.0264003749225747,0.008632513498894852
1630597349527816,623465.51862815,4848825.60399016,154.3507674257291,3.5024587284608626,0.7040905499925498,0.0546235314755856,1.7057058211980156,-1.403686687979524,-0.13929073035015657,-0.0376997490208197,0.016350844949238694,-0.0421418482830198
1630597349627817,623465.8698005734,4848825.6706175385,154.3539580616296,3.514472541406761,0.6450970808021018,0.032471716445286306,1.7213892441523024,-1.4034044389271962,-0.15018852438164249,-0.016691344313330483,-0.005646343220241631,-0.031629411502380064
1630597349727818,623466.2224436329,4848825.729994216,154.35265516690671,3.5274275246543967,0.5729682804248387,-0.023434813886107242,1.7414139117170162,-1.4021241454943163,-0.1701138627877901,0.014598856016737239,-0.00482622611002846,-0.09399160537372005
1630597349827819,623466.576631035,4848825.781576614,154.34434231922438,3.5521513955715123,0.5103804005149879,-0.06332142091583938,1.7689232343526446,-1.4009108291529577,-0.20150494045182646,0.08455463539380988,0.0006058555866195667,-0.03618175792672982
1630597349927820,623466.934987468,4848825.829609192,154.33597065867443,3.6048925856410956,0.517580289919929,-0.043718151069889716,1.7895045524419488,-1.4002288792338957,-0.22900325701798804,0.08456806515199282,0.0036309847752978405,-0.022125245386839083
1630597350027821,623467.2981541567,4848825.881647155,154.33356974974893,3.6459554477909046,0.5808873041637852,0.0016605494713367586,1.7919096731799757,-1.4004639299528652,-0.23577090458756658,0.02765843435100616,0.00718500441313759,0.044048302567222496
1630597350127822,623467.6645716395,4848825.941802887,154.33768553897838,3.672615572569062,0.6767020526506553,0.06216526383606638,1.7852771253822284,-1.4018574263599095,-0.2291186202984688,-0.027730260471895564,0.009390183148474167,0.02594825512463529
1630597350227823,623468.0319798781,4848826.011546803,154.3470637729501,3.67319194478214,0.7356605429861115,0.08393442010301237,1.7750086204648612,-1.403124755272373,-0.2118562375136505,-0.07341570922313227,0.0061829540032180596,0.04514953638673289
1630597350327824,623468.3997462912,4848826.083150797,154.35633825811206,3.6791386072855663,0.7388926357766136,0.06866190519288709,1.7650452152366873,-1.4042547283562212,-0.19686703475711398,-0.0580454220467598,0.002766157170298616,0.023244102006538907
1630597350427825,623468.7687838996,4848826.153526441,154.36343333614462,3.697902571759058,0.6873576523367033,0.045037630024678935,1.7556100251644966,-1.4047570949339683,-0.1814334003726077,-0.027454467783074525,0.004587594888920954,0.05957863913540471
1630597350527826,623469.1394762299,4848826.21516013,154.36711542348144,3.7111629864615656,0.5972517158623427,0.013549976535632141,1.746862860918469,-1.4055576722574707,-0.17283793469616737,0.04306931108684014,0.006066742702265321,0.0006316197909543463
1630597350627827,623469.5113904392,4848826.269480906,154.3678647870464,3.721233495486876,0.5556040680634181,-0.0009044476054562295,1.7432229798872247,-1.4062351810503737,-0.1724868096185942,0.039686796324349245,0.005081488274812028,0.022823344336587458
1630597350727827,623469.884581302,4848826.3225538125,154.36768713252633,3.7360631688618446,0.5619769429864756,-0.0025512043382339665,1.7415573477277757,-1.4067967667613754,-0.17398249629088805,0.015486038632051132,0.0014657271755209869,0.006915753810781603
1630597350827829,623470.2588483599,4848826.378250236,154.36887248120266,3.7382760734296903,0.6209741776063923,0.022578758080065427,1.7383958225725382,-1.4071768884879892,-0.17363117958760907,-0.005287900656657244,0.004852220430865128,0.013145944678793731
1630597350927829,623470.6333642531,4848826.441539254,154.37264959726815,3.7482856338414283,0.6711512926980302,0.03730210346046481,1.7352139100700918,-1.408015080588023,-0.16707085271013067,0.0075680361875848454,0.013402237369347198,-0.002302863388656632
1630597351027830,623471.0087764276,4848826.507037203,154.376476157906,3.751366879908136,0.6969555393424474,0.02157833509187708,1.731816431744166,-1.409305796350173,-0.16196286154976225,-0.051342483869388555,0.00972126754742671,0.0036001844618831777
1630597351127831,623471.3845286912,4848826.573638854,154.37734284444306,3.7615795250216273,0.6615557425444507,-0.003799673535924461,1.7328162789720651,-1.410384319615973,-0.15858373217991034,-0.01770483354143053,0.012442154130632396,0.008873472726629793
1630597351227832,623471.7618674005,4848826.633813582,154.37713837551183,3.7742680648977074,0.5858810476888543,-0.005931291784689145,1.729687534356192,-1.4117372611618126,-0.15441118088915845,0.0022335032184583412,0.015110095824644896,0.003984736988278137
1630597351327832,623472.1396470558,4848826.685495237,154.3768726994803,3.7751416067464785,0.52913336402779,-0.002892167808202041,1.7284030940858524,-1.413809525293188,-0.1558852729747662,0.03696450866856693,0.024981002358825152,0.02180351508802886
1630597351427833,623472.5175334007,4848826.734547586,154.37679802362533,3.7722467414325194,0.5379674363790419,0.001561538939463935,1.727262419761794,-1.4167943833309762,-0.15776033404718395,0.018107063147073207,0.023765763635474876,0.004057484862819113
1630597351527834,623472.8944102254,4848826.786805473,154.37857612445634,3.7543748303509616,0.5810422633867072,0.01693905317854837,1.7221464004313594,-1.4194112915072792,-0.15380425067187048,-0.008842744908967635,0.025655511693852672,0.01095386850483022
1630597351627835,623473.2690787262,4848826.842858684,154.38099877709018,3.7310390298672464,0.5961993792673689,0.020019210746366728,1.7219204297122195,-1.4217493538282235,-0.15202436472901776,-0.011636250821026194,0.02673308863846716,0.006063496989602473
1630597351727836,623473.6419271427,4848826.899397073,154.3818812120729,3.7214063703432156,0.5951318464172777,-0.0030254214423478844,1.7258969758214835,-1.4241338023024352,-0.15361308744553911,-0.03082642122148389,0.026811955705075254,-0.0022761548187271337
1630597351827837,623474.0135982065,4848826.953620724,154.38053054702493,3.701177814101366,0.5451093992646163,-0.018894163800041018,1.7307555813405011,-1.426528733917286,-0.1567010337574177,-0.008544866569066325,0.02675603667369235,-0.011920608330256145
1630597351927838,623474.3828890596,4848827.002069893,154.3789885142098,3.679441318064002,0.49076919683290904,-0.003133952106141381,1.7344270201956,-1.4286419727880009,-0.1614007143324569,0.00815797050617504,0.020339775435225027,0.0017993902449790376
1630597352027838,623474.750312984,4848827.046470419,154.37920404380657,3.6574424179952234,0.46915129204251066,-0.002440303414765156,1.733729448656095,-1.4301711128344539,-0.16302561819672282,0.020885263259559084,0.018776767430480474,0.010938264410757985
1630597352127836,623475.1143046109,4848827.090455818,154.37884909719995,3.6120968378217224,0.4823790104903318,-0.0040805295785261405,1.731751400975731,-1.431937243842093,-0.16369087564507392,0.022177859192213333,0.016146899174462086,0.013856191691259711
1630597352227831,623475.4732132538,4848827.1370079145,154.37891759354324,3.5575653695846996,0.5060555371034947,0.006974643055471163,1.733610836762475,-1.433578561151746,-0.1665619304536698,0.006573392042410027,0.018353745420519468,-0.015071630657606371
1630597352327829,623475.8261463654,4848827.185329344,154.38049276726807,3.4979219902863936,0.493172817642883,0.017074000695409597,1.7349628889579016,-1.4347399684034445,-0.1664703258584355,-0.004844286467664566,0.01041632776222251,0.00022854692457676063
1630597352427830,623476.1726317351,4848827.229589117,154.38173000472102,3.4276219066738465,0.43860628285410347,-0.009055212164083521,1.7297717675341158,-1.435834046574605,-0.16252871136477473,0.024820734564445376,0.013605952012317235,0.012322347334544424
1630597352527831,623476.5112816395,4848827.268624508,154.38063515368722,3.340819182464983,0.39058550107303763,-0.02066199426228157,1.721152635572138,-1.4369041874866182,-0.15679352922163736,0.0032843817756530503,0.0017357295099676008,0.008496481685281896
1630597352627831,623476.8403471155,4848827.305698969,154.3801889575523,3.229159517234001,0.4086804144697174,0.002164841701991224,1.7077661920800296,-1.4363949932452886,-0.1479118392557782,0.0043299707381107945,-0.02029703945071271,0.023070265999587714
1630597352727835,623477.1575081281,4848827.350370404,154.38148175346362,3.1099520313969573,0.4893736021805947,0.013317384908735396,1.7045966323691273,-1.434292911226618,-0.14413270308569456,-0.012912849364462547,-0.0265154542290792,-0.013127172064325144
1630597352827839,623477.4635605105,4848827.402036905,154.3813590503382,3.0176515701946673,0.5506942822254278,0.0017425235626632658,1.7149163213261902,-1.4322550693239644,-0.1511367407351523,-0.05017416963606146,-0.021811087061106314,-0.04841678362945341
1630597352927841,623477.7649475042,4848827.460393053,154.37985778448353,3.0168663762960044,0.5978860561394018,-0.015474956698541896,1.7270725643118916,-1.4302186634018896,-0.1552104682588575,-0.13577036216138685,-0.02440819079110071,-0.011601540711816127
1630597353027842,623478.0668540215,4848827.517357822,154.3793213067736,3.0199610068784883,0.5128693431454562,-0.006100715705580858,1.718991904885925,-1.427436260899636,-0.14079616657788574,-0.030256592146291297,-0.03132998839935451,0.021287150183843844
1630597353127843,623478.3688367824,4848827.56316574,154.38066793197345,3.018317626478686,0.4046346672537502,-9.912121264882799e-05,1.700818653837357,-1.4253405103944892,-0.1230605044913659,0.02262501509972417,-0.018065564484391994,0.04404885878128402
1630597353227844,623478.6703078118,4848827.5964966165,154.38071682208113,3.0050559595635,0.30474574877399657,-0.01586091064042008,1.6871679672186632,-1.4240561535589467,-0.11618031785502117,0.1026648692413782,-0.009761345345516714,0.007360637240685398
1630597353327844,623478.9695381566,4848827.626036721,154.3785918310873,2.9779988105792405,0.32660256049170905,-0.025000658741721082,1.6817774256865379,-1.422123272152022,-0.11936357570600462,0.05903594003522061,-0.026692352447355988,0.008889028510381225
1630597353427845,623479.2664724111,4848827.661907919,154.37609195594945,2.956998448309769,0.4166086982212433,-0.012757299777723918,1.680794470771863,-1.4199168875566008,-0.12380132735744713,0.01946898083461459,-0.016370158046718063,-0.001956248768113352
1630597353527846,623479.5609714311,4848827.709161994,154.37686132112447,2.9281885359296638,0.5378929393914397,0.01481470000182817,1.6774725228485343,-1.4192839625399272,-0.11982583621887649,-0.0455648768075268,5.27363888564896e-05,0.005921463851991845
1630597353627847,623479.853222771,4848827.764103997,154.37884069088682,2.9197668961147194,0.555230506401909,0.018228595046376705,1.6769877353998366,-1.4187774476087036,-0.11468164163612843,-0.0410665036859052,-0.015332619637627467,0.008971175256073539
1630597353727848,623480.1454740748,4848827.817394569,154.38108375984945,2.912079742698079,0.5218205620238495,-0.011524971516107043,1.6648161249544993,-1.4167484694875847,-0.10025878369474699,-0.017234990019541575,-0.028590566511586785,0.010270545350885663
1630597353827850,623480.4348902168,4848827.869537095,154.3765411014543,2.8740105644591964,0.5180598467082375,-0.05255285814764625,1.670084553495058,-1.4143440953757973,-0.10378208462760212,0.025466798675804234,-0.016457043606083,-0.02067721886884207
1630597353927850,623480.7215853321,4848827.92061216,154.3699201024029,2.86087734608223,0.49734123287687093,-0.04492510520341365,1.68276548129029,-1.4112193785934264,-0.11665950388859016,0.010890943257411004,-0.05168232130688116,-0.03774484039638892
1630597354027850,623481.0084559387,4848827.97069123,154.36533237118545,2.8754164490340415,0.462110132329358,-0.0250604481028228,1.6890427852020924,-1.4053092702143122,-0.12334208639859905,0.006526897277011434,-0.06245902337915981,-0.00644379847377094
1630597354127851,623481.296808245,4848828.017995038,154.36367803664433,2.889844428911296,0.4668650302108361,-0.013140042431669626,1.6838008432578009,-1.3997301795982502,-0.12204504604934419,0.042987283911254885,-0.04546836081399697,0.006265430238547064
1630597354227852,623481.5864117143,4848828.066696485,154.36204791125652,2.8984852043739937,0.5054705260197746,-0.020595395678802964,1.6800941716534064,-1.3963821252575632,-0.12218016210278944,0.04010546317703686,-0.03254240296416824,0.0031293980773221867
1630597354327853,623481.8773878032,4848828.11854227,154.35970786271838,2.9219733244589747,0.5263810324942276,-0.01863582643703988,1.6778865250569306,-1.3925166677152059,-0.12300751867376318,0.032914674939192146,-0.04988190326660983,-0.014266169724503312
1630597354427854,623482.1706922648,4848828.175375986,154.3587299725304,2.9454752839147194,0.5735400947155725,-0.0019173965880621598,1.6736238774481447,-1.386671834815334,-0.11971652503514162,-0.002092202842684883,-0.06324880488840647,0.022512724496978408
