GPSTime,easting,northing,altitude,vel_east,vel_north,vel_up,roll,pitch,heading,angvel_z,angvel_y,angvel_x
1630597330954834,623422.8440458962,4848820.472751827,153.7685055038389,0.00024634309787781793,-0.00039055273027338393,0.00010791035820559743,-0.015378298402682206,-0.031890605188402026,0.5578406734501149,-0.00044851280145644687,-0.002270115666780826,0.006087120561423628
1630597331058472,623422.844031188,4848820.472759497,153.76850503777246,-0.0006051463420700876,-0.00021821563547113547,0.0011245390758588781,-0.015353460447888571,-0.03184675015383258,0.5578309997330706,-0.0011828246048456732,0.010228905336732,-0.008116444123604676
1630597331162232,623422.8440341005,4848820.472751279,153.76850415901217,-0.00046782526801790626,-3.69481968073769e-05,0.00022536142570315387,-0.015379958250855046,-0.03186206206778603,0.5578176523583247,0.0005716421242633008,-0.004857411532550942,0.0007480334478241158
1630597331265869,623422.8440569497,4848820.4727599835,153.76850568780722,-0.00016453982662824302,0.0009457097641982562,-0.0009516651237205058,-0.015351134369032576,-0.03192724789106316,0.5577959158361661,0.002324339874960724,0.0015764277891189829,0.002932935820950218
1630597331369629,623422.8440207172,4848820.4727467075,153.76850581628233,-9.25180113441887e-06,2.0548271864915183e-07,0.0006272448739477936,-0.01539416691653558,-0.03181706347361909,0.5578075749321227,-0.0006256270759165168,-0.00011485935807200653,0.0027923050312905627
1630597331473389,623422.8440456699,4848820.47276084,153.76850542789992,0.0016133170653170948,-0.0005268024743221994,0.0006231704370435345,-0.015351697094342403,-0.031891680036730354,0.5577936490755899,0.003247429272342786,-0.006131628013194271,0.01327240130905773
1630597331577026,623422.8440355,4848820.472766032,153.7685045145894,0.0004275768348944829,5.101784020125451e-05,-0.0006644489404725659,-0.015334672103139758,-0.03185842073751146,0.5578054247044704,0.0009449386943515131,0.003835773739187288,-0.0025381744540945686
1630597331680908,623422.8440328635,4848820.47275686,153.76850564493512,-0.0009339142935357842,-0.00024669276084886445,-0.0013346081736047928,-0.01536250105449872,-0.031849285445328494,0.5577893869937596,-0.0032823167620468713,0.0031108174747501807,-0.0008761232646787956
1630597331784424,623422.8440519355,4848820.47275311,153.7685050711707,-0.000329191210943533,-0.0003616305139151238,0.0009853069564582347,-0.015373345577554232,-0.031908743367688536,0.5577982515553096,-0.0032516650521339347,0.005133988785073047,-0.0008241546223003389
1630597331888184,623422.8440215492,4848820.472736969,153.7685028589113,-0.00012543452551577597,-6.733717526797325e-05,0.0012638679504106082,-0.015424699632885196,-0.031817274015508705,0.5577923298390514,-0.0015533973595428805,0.007171984538337907,-0.0076542036294415606
1630597331991943,623422.844052667,4848820.472744273,153.7685024997748,-0.0009618880884654789,0.0005935427365241408,-0.0004981514687451046,-0.015404689203011955,-0.031919361172239924,0.5578018105967839,0.0009882380667758938,-0.0027189145168911074,0.003948354906485874
1630597332095581,623422.8440336369,4848820.472742573,153.7685046936867,-0.0002074794629686839,0.0004654411273106002,-0.0008144499672732157,-0.015406093899014713,-0.031853425468420134,0.5577993458250552,-0.002891782383897695,0.0020333294977894693,0.0008365333037658934
1630597332199463,623422.8440357911,4848820.472743275,153.7685045184193,0.00090076297181598,0.00010564952855000035,0.0002558343471329137,-0.01540740906051784,-0.031863674556201385,0.5578376344881977,0.00024860156033317253,-0.005878784316189809,0.008958390376284759
1630597332303101,623422.8440482939,4848820.472736579,153.76850229031186,-0.00035198102587957194,-0.00014078365843115398,0.0005902240509215862,-0.015427394370508165,-0.03189981221602624,0.5578420809717497,-0.0008419815919814348,0.005634333462677899,-0.001513644871323335
1630597332406738,623422.844016581,4848820.472709634,153.7684998001879,-7.504627896703196e-05,-6.656281539371576e-06,-0.0006537309956713844,-0.015512864180267217,-0.03180253624792425,0.5578311592389024,-0.000743143495638917,0.0035494157246611507,-0.004640266373050435
1630597332510498,623422.8440416218,4848820.472733082,153.76850333216123,-0.0011067055199853707,0.0003021558224779847,-0.00043270475122701816,-0.015436162578689678,-0.031876511954771446,0.5578206988966407,-0.0022057353155208338,-0.0009953795622106994,0.0004183945841783129
1630597332614258,623422.8440166411,4848820.472731409,153.76850397931284,6.395726721427516e-05,-3.806515128708689e-05,0.00113353824631348,-0.015442710218390157,-0.031801378514996745,0.5578168755129213,0.0017211290548701634,0.00634648520815363,-0.006405035717784933
1630597332717896,623422.8440369406,4848820.472728166,153.7685016252891,0.0004845459034096027,6.344070912320075e-05,0.0005725376992630195,-0.015455332527952895,-0.03186997824638281,0.5578380432865624,-0.002939569677025195,-0.006006544910246283,0.009180245390215228
1630597332821533,623422.8440279095,4848820.472715008,153.76850083317854,0.001252719694741039,-0.0002586536160699437,-0.00014859706189046117,-0.015495926728892433,-0.03183908183353038,0.5578545830115772,0.0011546170081889666,-0.0016690648812744868,0.0005479620679436514
1630597332925293,623422.8440299174,4848820.472702711,153.76850039836813,0.00020459093436049316,-9.600213811013198e-05,-0.00015024160824133844,-0.015534867557867245,-0.031844503137327645,0.5578331187204831,-0.0009771249346918378,-0.0011089602490199262,0.0019110546962181325
1630597333028931,623422.8440481635,4848820.472726256,153.76850147144066,0.00020506984686018996,-0.0015228056753648254,0.00016257745152742755,-0.01545910591632825,-0.03190235638259488,0.5578439917065986,0.0007678075533638323,0.0016468634741628393,-0.0005344513170186907
1630597333132568,623422.844025928,4848820.472725407,153.76850155280965,-0.00042791603977743165,4.1289040364520365e-05,0.00019257732328410775,-0.01546112995121257,-0.03182996958576654,0.557827102499385,-0.0007352508119016974,0.0032021070596491403,-0.0038214335062777137
1630597333236328,623422.8440316282,4848820.472730025,153.76850227244935,-0.0017617578458186834,-0.00027282332700120904,-0.0010549951256235896,-0.015447587872883048,-0.03184904487531251,0.5578102451856717,0.00037537707140788864,0.0005817036849917007,-0.0027305136986670365
1630597333339966,623422.8440428537,4848820.472712782,153.7685004402491,-0.0002159575593542088,-5.31839277090909e-05,0.00010787414600581266,-0.015499491051966494,-0.03188520917453872,0.5578255276863868,0.005405139671288964,0.004760476081034612,-0.0048627480707489085
1630597333443604,623422.8440231582,4848820.47273516,153.76850301707498,-0.0001544757766984394,-0.00065098569167031,0.0009348405381008593,-0.015432182740942468,-0.03182449835328912,0.5578147718044442,0.0006462483971226875,-0.006586962650551742,-0.0013166545026561526
1630597333547363,623422.8440403017,4848820.472748265,153.76850377691525,0.00021983588103805977,4.2033321596544366e-05,-7.372075365847225e-05,-0.015392347209177025,-0.03187838674063323,0.5578462480529307,0.0011523236129070942,-0.0042624625690181215,0.0038520264300184294
1630597333651123,623422.8440170182,4848820.472732691,153.7685029432878,0.0015320392453945049,-0.001386129159433368,-0.001283756185688079,-0.015440444192917268,-0.03180576636643378,0.5578448259437808,-0.002286150097985106,-0.0006162874129897263,-0.00012154795031676573
1630597333754761,623422.8440298365,4848820.472736604,153.76850391205005,0.0005202421735764562,-0.0005480884683607796,0.0002996086723162532,-0.01542563974006615,-0.031841710313389796,0.5578259371196376,-0.004953358255414623,-0.006294605256699413,0.0041247592137862235
1630597333858399,623422.844039397,4848820.472758377,153.76850496224347,4.236814923922459e-05,-0.001629787160495249,0.00013992330951556408,-0.015359060743799441,-0.03187337529371331,0.5578275221761249,0.0005476598018404731,0.007455805615064858,-0.0033517625223967217
1630597333962158,623422.8439902111,4848820.472753058,153.76850579245328,1.997619329592376e-05,-6.35153388394203e-07,0.0002848573806079978,-0.015372394683636293,-0.03172173644169344,0.55781178995695,0.0017131767968108316,-0.004071430639309147,0.0022473661457122233
1630597334065918,623422.8440156467,4848820.472754728,153.768504515651,-0.003876523089665524,-0.0013792700826153561,0.0013866304566377795,-0.015370984318937866,-0.03179247620212637,0.5578032455758037,-0.0007400313909244069,-0.00019614274917263027,0.00176103392010877
1630597334169678,623422.8439705543,4848820.472708744,153.76850012853762,-0.002164575607260315,-0.00012314474568760563,-0.0002469176205804777,-0.015513818730118277,-0.03166605996875001,0.5578270691557451,-0.005763141935966816,-0.004207062310138095,-0.000297022167901481
1630597334273438,623422.843945176,4848820.472761937,153.76850646730927,0.0015952079750341489,0.00025478508928606736,0.0030278338813027367,-0.015347064281971582,-0.031575829301817994,0.5577958030449165,0.0014830610277258708,-0.012774266860301994,0.011267174840788836
1630597334376953,623422.8440002467,4848820.472737787,153.76850433951324,-0.0006158899566034478,6.627385460260431e-05,0.0004873563791405048,-0.015424547461790117,-0.031756698893395656,0.5578490619047546,-0.0007071919601138972,0.0030074369473164922,-0.001409208931963137
1630597334480713,623422.8439584891,4848820.472743095,153.76850535886962,0.0025888010122829498,-0.0005663172589013536,-0.0011766586572150143,-0.015408403265943246,-0.03162646599657298,0.557844775562109,-0.002479524214081954,-0.0031082384591137823,-0.0016089252859079245
1630597334584473,623422.8439733359,4848820.472740697,153.76850505266728,8.285829674240059e-05,-0.0004783058253813905,0.0005905015560441278,-0.015414778326097549,-0.031666048459875126,0.5578644025891784,0.0028762415603985425,0.004131749167498879,-0.0018133147989329895
1630597334688110,623422.8439936155,4848820.472720996,153.76849592046207,-0.00038806442993389223,0.0005858933525248397,1.6252454570584075e-05,-0.015410188284972544,-0.03179611677958188,0.5577827667745453,0.002685194147001422,0.012103858964123226,-0.007764477621098717
1630597334791870,623422.8439230613,4848820.472638631,153.7684270466115,-0.001638502707066866,-0.0015363731177639548,-0.0008869164608142347,-0.015254871898533178,-0.031887432659092205,0.5575799949780772,0.0033281713057878096,-0.005170135498960048,-0.001322510585263115
1630597334895508,623422.8439424499,4848820.472603552,153.76832383226173,0.0006408342442154681,0.00013628665661271546,-0.0010030271087810433,-0.015114857267651362,-0.031975180092786354,0.557616354704886,-0.002390733931146105,0.004511297027995113,-0.0013589818497825364
1630597334999268,623422.8440649483,4848820.472723928,153.7682174382263,0.003254111751883345,-0.00019725151455837254,-0.0006349570237834665,-0.01486814706788471,-0.031956874730215176,0.5578824208429854,-0.0021805151351840823,-0.01269558813811616,-0.0055168722507488764
1630597335103027,623422.8449589302,4848820.472719234,153.768033293722,0.015999991313968856,-3.1315113629228064e-05,-0.0032511730771998416,-0.014763454851670368,-0.03226517297330488,0.5582562931756505,-0.00497889210219535,0.0027971992449665347,0.0006418091582253316
1630597335206543,623422.8477416784,4848820.472956898,153.76760502047543,0.03961812230089171,0.005217382230217361,-0.005702891253693666,-0.014720117768799692,-0.03264902656681445,0.5586565464606089,-0.005541342985146433,-0.0005080640683863091,-0.002297642571664243
1630597335310303,623422.8537306833,4848820.474021091,153.76713447541658,0.07318681876107297,0.016011943696511637,-0.003218532075923693,-0.014695944898651338,-0.03334565783077289,0.5590714448850818,-0.001904185935942457,0.004773593010258884,0.0005403921936175788
1630597335414063,623422.8629036575,4848820.476109213,153.7672755720674,0.09738746888021382,0.02453322252863774,0.007934723161694432,-0.014659620433095337,-0.03333452035400793,0.5596958449363222,-0.006427995732756425,-0.008201588362258889,0.0047594289087376325
1630597335517700,623422.8729350243,4848820.47898783,153.76855393677917,0.0994374679145036,0.028078558963388175,0.013008188817124964,-0.01437139332633191,-0.03233286519863631,0.5603118453030037,-0.006695952961212518,-0.02269497736241594,0.008697365578703747
1630597335621460,623422.8831006892,4848820.481828061,153.76941013648678,0.10434198642624767,0.021567975972125862,0.00114888418946374,-0.013890761685773493,-0.03174754823119543,0.5610623791859131,-0.010137781855207357,-0.00041751969336832335,0.0006245458642001487
1630597335725098,623422.8946551185,4848820.483636249,153.76954868241336,0.11840962563098327,0.01619557715092523,0.0024551214743689,-0.01416311434996654,-0.0320040657725945,0.5620509775358581,-0.008504543378846287,-0.0038133055795741837,0.004103187677973507
1630597335828858,623422.9075325341,4848820.485479993,153.77002000965643,0.13210416070350803,0.020983620598099155,0.005095798787744604,-0.014368347569944902,-0.03184715536073723,0.5632236748823837,-0.007714031009221216,0.002958000173008487,-0.00010758507849629137
1630597335932617,623422.9219874997,4848820.487833955,153.77051214587706,0.14971624411929135,0.02598754782839295,0.0037676146891555025,-0.014555752770071215,-0.03175981021574842,0.5646910943633817,-0.016069008446397266,0.003052290592331288,-0.00027012725852851695
1630597336036133,623422.9388364505,4848820.491231451,153.77086572594385,0.17706939801098906,0.034558556167286356,0.004004986825817079,-0.014446701022303408,-0.03186530898146824,0.5665258099736585,-0.017932825371253368,-0.0010119423502223787,-0.0026065303020681757
1630597336139893,623422.9595135069,4848820.495475288,153.77116285664798,0.22385540669888998,0.0447966059078283,0.0016708575351915686,-0.014283900786810702,-0.03211074266389846,0.568755217971975,-0.02205601069102979,0.0017254709350248982,-0.009905631969199582
1630597336243652,623422.9863181675,4848820.500429418,153.771291269045,0.2951481869283233,0.05571109860483036,0.000875808985872634,-0.014122165698103477,-0.03269062152624269,0.5718113333570549,-0.0331308344456375,0.014090890109270863,0.00010547178837512935
1630597336347290,623423.0213355637,4848820.506170299,153.77164982826704,0.38078802012265023,0.06568406262846517,0.006873103866754181,-0.014425347847292536,-0.033192187280489505,0.5756228140948524,-0.03910955870383204,0.002937935407098796,0.0028868944246076248
1630597336450928,623423.0653361304,4848820.514488468,153.77276036976508,0.47404202338377927,0.08757627907487658,0.014762074191403907,-0.014058017451225254,-0.032919253057308945,0.5802797026876612,-0.04988601462599107,-0.004167447955088773,-0.006263101476391233
1630597336554810,623423.1190528381,4848820.525344178,153.77455038117057,0.5668196979702754,0.10848869032779543,0.020195746924385537,-0.013362087350072976,-0.03235592873225708,0.5864303281670958,-0.06537432671566705,-0.0037408285893217458,0.003151382539484619
1630597336658569,623423.1819506463,4848820.535399181,153.7770751287811,0.6476871519983373,0.0940306064701914,0.027039908317565416,-0.013670094010378886,-0.031901357565395194,0.5933425485660353,-0.0699596278220474,-0.004616132187712677,0.014601360815936123
1630597336762207,623423.2525810105,4848820.543101968,153.77983107498932,0.7182265820979293,0.06941447207997953,0.024726713452252965,-0.015151490916109955,-0.031803922595643026,0.6014113870492224,-0.08710401380665315,0.015145829431348056,0.014917230362435389
1630597336865967,623423.330832276,4848820.549788442,153.78200066473798,0.793011909896323,0.062282034352947616,0.01989750524720658,-0.017447695032519098,-0.032670907959958924,0.6114311096202593,-0.09954860103806867,0.007167923313992334,0.01447074082083071
1630597336969849,623423.4176512971,4848820.557450683,153.78387555117624,0.8795606969094355,0.09184981942227474,0.017980437364230772,-0.01943600114874835,-0.033717259386472964,0.6221509628751205,-0.10234313265521099,0.020646693584916987,0.0038603710834890746
1630597337073486,623423.5135905738,4848820.568664108,153.78573053291183,0.9762565095485369,0.14022533000513215,0.01684058188369056,-0.01988805335567665,-0.034136123615829524,0.6335287233431798,-0.11721963081918631,-0.007514831231427954,-0.012284744245199396
1630597337177246,623423.619818295,4848820.584385838,153.78741949794943,1.0778513486023538,0.1554533575348843,0.013932090366162664,-0.018264543132765713,-0.033903059573627034,0.6463907104526501,-0.1308295184110531,-0.016620593179604317,-0.018431658623953948
1630597337281006,623423.7360885005,4848820.601337064,153.7887532227334,1.1726855838816075,0.1325501754655904,0.01177641748284601,-0.015917234381723065,-0.03364540230255897,0.6603476961804571,-0.1395261990787756,-0.015966801847505145,-0.01279577644389279
1630597337384644,623423.8622452519,4848820.615600553,153.78982739327157,1.2692557269120468,0.12048748725287964,0.009959397751107012,-0.014594673404740686,-0.033757545632278736,0.6746972893501539,-0.13726728995002746,-0.0005958533070629943,-0.00432608596989917
1630597337488281,623423.9985845083,4848820.62569103,153.79122481357376,1.3679598164203695,0.09126341330817245,0.01578783703227124,-0.014744868048955119,-0.03376575809144076,0.689299441208957,-0.14160118546534,0.002059541334126054,0.006594888487990595
1630597337592041,623424.1446225026,4848820.632319,153.7934982732827,1.4545255833690165,0.04776455254495582,0.0269101191410534,-0.0163266958400195,-0.03352413851120359,0.704285087014414,-0.1424242687991684,0.009383394261523069,0.01964565255564027
1630597337695557,623424.299135462,4848820.635845438,153.7966014905285,1.5414717401682148,0.023045618294081666,0.034031475768277336,-0.018773413870776405,-0.032932622754231464,0.7189506864471616,-0.13806431407562703,0.009632464255078644,0.017018188174833675
1630597337799317,623424.4629223994,4848820.639298639,153.79970917944812,1.6272007981167191,0.06135102288320493,0.02693915726551293,-0.02067735775215416,-0.03202845596855425,0.7332560977147996,-0.13725245515711668,-0.002096793522029824,0.026342808676968827
1630597337902832,623424.6348768333,4848820.645802997,153.80224895062676,1.7087215928763722,0.08328137389814885,0.02092829228837869,-0.0209305226285598,-0.03105549542415442,0.7474102826138063,-0.13426112024543116,-0.02070213607421829,-0.0035120310139548647
1630597338006592,623424.8156399439,4848820.654783988,153.8043259278657,1.7895517786955766,0.058321866259762246,0.01823266280157046,-0.019037222009146808,-0.030131332180716733,0.760925753043311,-0.12587421805770663,-0.017556441280132607,-0.014482962512965715
1630597338110108,623425.0045582384,4848820.661098344,153.8068345179423,1.8750084281806132,0.03082562371653974,0.031112913886445562,-0.01793315208022595,-0.02873470183964815,0.773204775709029,-0.11170538751904813,-0.011693757668555783,0.013642465805462625
1630597338213745,623425.202387334,4848820.660846725,153.81068047387734,1.9597312565134306,-0.011987442667782428,0.04205889005470603,-0.018737433809438694,-0.02691093453457071,0.7835459212186933,-0.09291754549532294,-0.014977492355509174,0.037715397854744204
1630597338317383,623425.4081594532,4848820.655454104,153.81583196502493,2.030004702335145,-0.043714420714577915,0.05267872602325624,-0.0217019716777306,-0.02430627661098497,0.7922371317004138,-0.08008914448143732,-0.008939101673936493,0.03419633728026919
1630597338420899,623425.6202941778,4848820.651408945,153.8205508953548,2.0810656018124347,-0.04231425268920926,0.03864074511835903,-0.02378898997870984,-0.022160559406451317,0.7995269964480137,-0.0645630971778486,0.01786409186469489,0.012695483661617601
1630597338524536,623425.838481287,4848820.651642957,153.8238323521317,2.138635273922866,0.03300963634961074,0.026851990997566008,-0.023921743110821663,-0.021491336348615834,0.8051845141345596,-0.04552393264306007,-0.014178901362273259,-0.005877879410329036
1630597338627930,623426.0625907617,4848820.654986826,153.82623546555072,2.204362840474942,0.045277851661294416,0.016196213073366376,-0.02248559388385657,-0.020936922106490116,0.808855267911491,-0.02985265739463273,-0.012357483456782488,-0.017968670193107515
1630597338731690,623426.2946817135,4848820.659192445,153.82765736681466,2.2742437481870876,0.011079915656628827,0.012374116843940672,-0.02059902110460699,-0.020809406354509213,0.8111098170810173,-0.016626104167771213,-0.010413152541355,-0.01005578251593892
1630597338835327,623426.534735069,4848820.661584463,153.82932190670388,2.3608084044851463,0.0034716560974757324,0.020656311073067306,-0.019932364836297622,-0.020527202711593258,0.8125438714561151,-0.01132793015734711,0.004343586840188927,0.004108873723510621
1630597338938965,623426.783387041,4848820.660937391,153.83177754660755,2.444053667831706,0.008458376501542006,0.023943877607895264,-0.02046909946518473,-0.019374413149445407,0.813139815534231,-0.0004927949903029781,-0.007677178360659133,0.019818933672807907
1630597339042725,623427.0404470153,4848820.659182907,153.83422371289933,2.5144963046073006,0.005662370823120877,0.023387271326521054,-0.021610949405751378,-0.018659826243339048,0.8132843410062515,-0.001504625309908522,0.0023421737717605677,0.016034109425714062
1630597339146607,623427.3051318077,4848820.660425524,153.83675727315713,2.582826582056702,0.0034610750158687482,0.025159405672756756,-0.021631852783553736,-0.018168694069541743,0.8134270852232053,0.0025045551887754756,-0.010629635229410263,-0.010418590206660102
1630597339250366,623427.5768736057,4848820.664391998,153.83918055259525,2.654669576839529,0.025224459835615165,0.02187278187335249,-0.020160561027257634,-0.01784610720215882,0.8130639502194484,0.008487280734575605,-0.006138958987315046,-0.001761870091972544
1630597339354248,623427.8562408943,4848820.667653306,153.8410487793812,2.7269754465016014,0.05367478591496838,0.01155714391060432,-0.019660810412064855,-0.017542558480891292,0.8123997460019243,0.005422806916290931,-0.0020469012438022486,-0.00935524216472749
1630597339458130,623428.1431969252,4848820.671348781,153.8422223310157,2.8013767422807576,0.05086378331293765,0.013012762485304634,-0.018702744342923527,-0.01709256103521172,0.8114857411387575,0.00654415605561898,-0.01605295213777486,0.009559374950349014
1630597339562012,623428.4372341259,4848820.674914863,153.84431240262634,2.8625389206762146,0.030027155578847168,0.025786592513437755,-0.01839017211588344,-0.016351917072765433,0.8101263630837308,0.017330053725181486,-0.010613282709387602,-0.0024729551167277284
1630597339665772,623428.7375692028,4848820.680637104,153.84685226463762,2.927557997257697,0.03212796025739858,0.024410683356894426,-0.01701943478166069,-0.015362747073473973,0.808400161910751,0.015284750532783123,-0.017027041145585755,-0.015424378760752953
1630597339769653,623429.0441759147,4848820.686318667,153.84903273569924,2.976762902976256,0.06508585688080257,0.015972536204571272,-0.016408437628446928,-0.015442644328031784,0.8067198266953397,0.013888103669026151,0.004275936822660314,-0.02142437975536699
1630597339873413,623429.3562826616,4848820.6910744915,153.85046581112755,3.0384005923824655,0.07046453839697747,0.00936967743664116,-0.016562737678478615,-0.016359733662640458,0.8044833502811592,0.027153904180002436,0.001708569427261081,-0.03926551769759171
1630597339977173,623429.6755515052,4848820.694971753,153.85165967336818,3.11630008495367,0.02938928603849207,0.011515496271622183,-0.017153755335661214,-0.016575702889035395,0.8013832544801839,0.032442004819904245,0.019420715290521112,0.043712795124975855
1630597340080811,623430.0011801044,4848820.702375902,153.85343137933162,3.166123369096279,0.0844620709660208,0.025914034735483774,-0.01752801699834487,-0.015896729716633,0.7978273091310958,0.041125808569623376,-0.013881139691715406,-0.013096643818141063
1630597340184570,623430.3325401756,4848820.717583313,153.8563070225169,3.218146324125659,0.18811913331742625,0.02768492530538421,-0.01501503279564501,-0.015985885728793878,0.7931494989077567,0.05068357130761818,-0.02870541405025857,0.0015582227145901695
1630597340288086,623430.6689835446,4848820.739123032,153.8586658988914,3.276273523685567,0.23697252989351664,0.014228571223142486,-0.009964213224623474,-0.01623130445949177,0.7879340546162332,0.04603841541308911,-0.019102130373146602,-0.0426101777482974
1630597340391846,623431.011824345,4848820.762059142,153.86041856069767,3.330821116783608,0.16903790404882657,0.01690773094409736,-0.005388943103877751,-0.01596955306726472,0.7829101396953206,0.04632519266176537,-0.011548326782093183,-0.009231708321562632
1630597340495484,623431.3600410691,4848820.782939325,153.86157905369345,3.3878790007262847,0.1792867951853001,0.013067371430562656,-0.0025846553741072894,-0.016313054305380967,0.7785641667916514,0.04202064725437955,-0.04071398006101045,-0.04136729699646327
1630597340598999,623431.713758141,4848820.80174422,153.8642842654076,3.44083402432299,0.20081127612225994,0.03493633075797519,-0.0013364196592007787,-0.015569004719343334,0.7742668947672973,0.04466990427183756,-0.011858557189405292,0.015481292621092118
1630597340702637,623432.0723672941,4848820.820021192,153.86812722848546,3.4751498114336092,0.2005607802092498,0.03370127392302006,-0.001403959557537378,-0.01524635855977993,0.7703076986985304,0.036127214932249886,0.028163688236187815,0.005493073701999259
1630597340806152,623432.4329445331,4848820.841017292,153.87177126875855,3.490671975465009,0.1560301860053542,0.03461657726475834,-0.0003794353844574065,-0.01710676797939122,0.7667850597809961,0.02979084068855109,-0.01598610932944038,-0.019424538766441447
1630597340909912,623432.7963580773,4848820.865712686,153.87636794035419,3.5082323655646883,0.2643008643309582,0.04349520116776709,0.00210322920852936,-0.019573509402989714,0.7640853477064106,0.020483019827145735,-0.0029531963394832865,-0.08664926128486077
1630597341013428,623433.1613224027,4848820.894414735,153.88100204849414,3.523905389863242,0.30379488346666095,0.03689422384051873,0.005807106735960736,-0.022277738112169196,0.7620902942651657,0.015080503765984982,0.008938735689409706,-0.028951994732217573
1630597341117188,623433.5302882789,4848820.922405006,153.88450691080166,3.570368687813201,0.2334371392042429,0.034723748503035265,0.008519657405718337,-0.02529545538305915,0.7607796554206463,0.015105744296814728,0.019645867988695553,-0.006348502977294079
1630597341220947,623433.9037808712,4848820.945297088,153.8875015589208,3.6136346397654786,0.17308260810746118,0.022216853322441665,0.00835765301123801,-0.027460034485019547,0.7594338853696393,0.016223025696077614,-0.009446676742338,-0.00040735054206293323
1630597341324585,623434.2816133007,4848820.966485417,153.8901548859972,3.665044967781494,0.22554578524265023,0.034360689947699904,0.0075719446042457166,-0.029696077306069376,0.7584542187611626,0.00800340296978675,0.028911106564192792,-0.008522595178210114
1630597341428467,623434.6651580499,4848820.987990762,153.89465254702273,3.7133435608727243,0.2636830665786176,0.05705418719692394,0.0059375720707304375,-0.030339983531243224,0.7574690834531225,0.010414427950553857,0.020585375731534242,-0.014453458196973714
1630597341532227,623435.0521604605,4848821.014703196,153.9027518869393,3.7467944172825876,0.2654261639625615,0.0966812811758482,0.007489569449596117,-0.02996814111461953,0.7564672677136683,0.009426096104658643,-0.01428654510158967,-0.011684739903952
1630597341636109,623435.4423186838,4848821.0450513065,153.91352284149553,3.771919935857859,0.23897328129685932,0.10753186257297194,0.009894452842191375,-0.02931310280403252,0.7554025793519283,0.006544469559107573,-0.015138613197097896,-0.011986121631861912
1630597341739868,623435.8350692644,4848821.073732655,153.92419409463227,3.796840353267043,0.2691064917997735,0.09924882704645108,0.010815104818106587,-0.029368258035763897,0.7540946972181154,0.010611071777953831,0.008005182275773298,0.012614345621591997
1630597341843628,623436.2302400019,4848821.098222043,153.93351679962166,3.81429173673592,0.2639482227122497,0.07939021545031272,0.010066619563690097,-0.030063142560098836,0.7525138833224232,0.013837914846113209,0.038669225244427334,-0.0173739292223462
1630597341947510,623436.6282517858,4848821.1213980885,153.94129206214535,3.8353968372669045,0.24963276485550032,0.07018669112090865,0.007881863028444108,-0.03193443277311543,0.7509516329408756,0.016029675625834763,0.021057063326828687,-0.016640991456894252
1630597342051148,623437.0277430995,4848821.147589448,153.94868365860086,3.860987266504123,0.20288714461230356,0.07348862785481264,0.007256516560245515,-0.034304646416809706,0.7487068932857315,0.031016808776269125,-0.021914950722237675,0.00914697136381989
1630597342154785,623437.4296089791,4848821.176552561,153.957176746777,3.881091185017859,0.3193228472293895,0.09101347057013187,0.006877857098188139,-0.03745114056777251,0.7450674247032782,0.03077317872130114,0.028588368869853928,-0.032066986734232576
1630597342258545,623437.8347938402,4848821.210524298,153.96791781017282,3.910410827471981,0.38027308104703594,0.11263162943207575,0.007742964860317842,-0.03944100635255014,0.740944780140555,0.040821071409881504,0.014248733299649515,-0.017285660104619373
1630597342362061,623438.242234114,4848821.247212452,153.9798740303529,3.9491079054422613,0.34315317501712905,0.11469211380488378,0.008451746811562397,-0.040631838571180814,0.7364961101541115,0.04535368614075603,0.0015542150715212777,-0.006206359144246145
1630597342465820,623438.6542958124,4848821.282784836,153.99136952203975,3.993000172463765,0.29906613244138547,0.1101514645104138,0.007713948162271306,-0.041084200969743113,0.7315606702001155,0.044084713238785864,0.013199645434748946,0.012806425416290212
1630597342569458,623439.0695210204,4848821.318835243,154.0022315954425,4.0194471820395705,0.4012817920799507,0.10220615436093167,0.006324101022766152,-0.040794019771502,0.7273453728512708,0.03339449627560355,-0.0007746997265164358,0.011836018105124293
1630597342673096,623439.4876998815,4848821.359367925,154.01328840279388,4.057844328563552,0.4432259671067675,0.11304400884768656,0.00598386538228116,-0.03996122125660202,0.7236705168111687,0.03318443994249204,-0.03693308667417746,0.02129264090397081
1630597342776489,623439.9103119636,4848821.403604488,154.02536027932277,4.151843085270206,0.38229209282979354,0.11284774062456682,0.006607419646152612,-0.035487056199918106,0.7199983341491658,0.03602601461978997,0.014771792210484976,-0.030061883332059076
1630597342880127,623440.338127251,4848821.453126174,154.03722833200035,4.137287581127873,0.5013351754529238,0.12441439794650261,0.008976775256043313,-0.026619008646027644,0.7161389739576193,0.04289398150306014,-0.10255301632665825,0.02174695352372955
1630597342983765,623440.7593456013,4848821.505320688,154.05207496580508,3.995418904254531,0.5155218877218994,0.15908571770623353,0.011924395811844284,-0.02307134382275171,0.7122030373726793,0.03577762679469255,0.022544391763101773,-0.018454692315064237
1630597343087525,623441.1706039384,4848821.553303462,154.06909405124748,3.909335672753783,0.45187042214505047,0.1600740481753869,0.012644955878580447,-0.029325330785716357,0.7086303481297723,0.035980927718642614,0.07843344116890243,-0.09257965648991179
1630597343191162,623441.5785907084,4848821.5975245545,154.08421827548534,3.932060006072522,0.35528149518246416,0.12749817551807538,0.012094740009260429,-0.03708020726899196,0.7046762388745894,0.0392658478206473,-0.012764937601100111,0.04390389472111116
1630597343294922,623441.9880971974,4848821.642860653,154.0955495316181,3.9374696024564884,0.4717646904745602,0.08779198853639711,0.01095053627625223,-0.04047511498368539,0.7007652180910067,0.03571122822231405,0.020651844556106094,-0.022141519422194694
1630597343398682,623442.3957780798,4848821.692076674,154.10129676728948,3.88638460909149,0.530678689508018,0.01772399355621651,0.010432847788104502,-0.042974437819424324,0.6970364910623856,0.03694275649480672,0.049396193305021575,-0.05404957612316474
1630597343502319,623442.7982406055,4848821.747333212,154.10101959221055,3.851775434274584,0.5595257240434942,0.009717289431778908,0.013027168029704661,-0.04855100788185001,0.6935204032913045,0.024930358207771973,0.014527648057868147,-0.05691913722886263
1630597343606079,623443.1996012519,4848821.808568015,154.10989498579383,3.8996162628096647,0.5364218555341004,0.18493532588899173,0.01667601947334358,-0.04912785333549416,0.6907873563909697,0.032219912091766334,-0.004598042099190964,-0.04904391320279189
1630597343709961,623443.6025596339,4848821.869575165,154.13626108114275,3.900685254797169,0.5643403583242244,0.29473039282584557,0.020239540935514642,-0.04089371370666835,0.6866618494126656,0.042054142144455305,-0.10026742693625056,0.06204473582214037
1630597343813721,623444.0017388398,4848821.924264304,154.16538384358327,3.8218218259770533,0.548566746403777,0.2383804182371205,0.019522477615879972,-0.03242892382445395,0.682920269622534,0.03590556674220379,-0.08282582937031352,0.09926721914734539
1630597343917603,623444.393161438,4848821.976293714,154.18348019511959,3.7181303015284617,0.5222865026682699,0.11062587741403562,0.017337148427156994,-0.030422762440759154,0.6797689363694734,0.03662429900541956,0.02596983778287548,0.006586805714856364
1630597344021362,623444.776321801,4848822.029302935,154.19036699103714,3.6610905002306806,0.46289563803313094,0.038048189801396765,0.015965143676688363,-0.033438895274828774,0.6756511396951941,0.04517199244620799,-0.008689811920806754,0.031211222177324936
1630597344125000,623445.1548836194,4848822.086436532,154.1946974825984,3.629656045143635,0.5846154149904311,0.054883697819811034,0.016502229765919647,-0.03715363236551877,0.671155312713602,0.036207010853765195,0.015459273450204793,-0.03291675466856973
1630597344228760,623445.5323709304,4848822.148264172,154.20285154236112,3.631650606461934,0.6346644698852743,0.10134312053606434,0.0183160981542235,-0.03899813041146659,0.667393395067061,0.036771179518533786,0.002616678698848083,-0.022035878761830965
1630597344332520,623445.9108304592,4848822.211483035,154.21543577934912,3.6592340144627644,0.6130053254387805,0.133230771165064,0.019663999069302097,-0.03867764762571149,0.6639267365229088,0.03211110603823511,-0.017509668506694158,0.004170836224726931
1630597344436157,623446.2913159404,4848822.273421693,154.22917328109529,3.695540478648637,0.5289122389071701,0.12893305924028148,0.019650773434681034,-0.037318354991371226,0.6604900806804125,0.03529912740256721,0.009391144633336911,0.002018437477026998
1630597344539795,623446.6743180146,4848822.333793366,154.24124908615536,3.70425578210542,0.6087118140502726,0.10826815213548563,0.018222742072170676,-0.0366246691183535,0.6570871706002112,0.03326496218934435,0.002174191816407819,0.015096678434870506
1630597344643555,623447.060375486,4848822.395882087,154.25192158831123,3.727589192656219,0.6521692145775855,0.09808298164050863,0.016834485884860338,-0.036714076294925,0.653974485788874,0.030030866601518512,0.012673425104794045,-0.00026265709885194943
1630597344747315,623447.4497618106,4848822.462153164,154.26228370545752,3.772471083655678,0.6537652506195323,0.10245193418997989,0.017019941123188633,-0.03702774763062494,0.6512772724762905,0.022166961564696292,-0.004078644595341962,-0.0019708533113218553
1630597344850830,623447.8427662213,4848822.53102108,154.27348033518027,3.8303331810799293,0.6349314922731742,0.11492533548001446,0.017277057718011662,-0.0365694184461229,0.6490402085209194,0.020236296893511672,0.0007292526547378126,4.417924075643546e-05
1630597344954590,623448.2418699972,4848822.6006996455,154.28540877931292,3.8692721247014155,0.6921707554510537,0.11472152506560768,0.0172083268434754,-0.035248438624126306,0.6471237185800732,0.016707575963501423,-0.015279027596553354,0.024910637195278622
1630597345058106,623448.6446786267,4848822.669114643,154.29677780274818,3.9105492249808513,0.6994739857409561,0.10408353541612456,0.015945843083875123,-0.03433657792063965,0.645318634670211,0.017569179736092882,-0.0011500308402221753,0.01413860723970547
1630597345161865,623449.0534498953,4848822.738208302,154.30697768473465,3.976831055857191,0.6443638767445595,0.09385703806561721,0.014424410132342202,-0.03319207665163816,0.6435288967272941,0.01305909213418003,0.015463323395024051,0.03304565459381019
1630597345265503,623449.465972705,4848822.808631462,154.31663861254526,3.998025026372264,0.6861759898315065,0.0963801949730742,0.012367504278087678,-0.030703905480364578,0.642226040126502,0.007547602317749479,-5.348052072335609e-05,0.01598338479039524
1630597345369141,623449.8794062429,4848822.883631672,154.3272681632762,3.9799430975364056,0.771969626860066,0.10968212150211863,0.013066869068207544,-0.029304786855703775,0.6412166877159138,0.010479153607251879,-0.03502891717671669,-0.00262517756570684
1630597345472901,623450.2922848708,4848822.9614741905,154.3390319650107,3.970619942541748,0.777956983554985,0.11417470220706388,0.014778221415458015,-0.028631452122670598,0.6403192175375313,0.008678782445479224,-0.002157827775657176,-0.01525201958822927
1630597345576660,623450.703955961,4848823.039873851,154.35072803742588,3.971358904230938,0.6954551681483442,0.1064506114199884,0.016895740924960104,-0.02907419907243179,0.6398107664437639,0.0016392567358571638,-0.0037958938238744208,-0.0025422372047330956
1630597345680298,623451.1155010669,4848823.113837551,154.36137859445938,3.9792046014926457,0.6882718297096095,0.09390862887474771,0.016696282902893222,-0.029042212544861713,0.6397361493302444,-0.00046375272858459993,0.0035468466533499212,0.001111792145932101
1630597345784180,623451.5283214035,4848823.18340475,154.36946644785047,3.9536801171595997,0.6976672383492132,0.06619737518104078,0.01464548006751056,-0.028918972221877046,0.6398403749668495,0.004519462886938547,0.016089198578738556,0.02976315562082593
1630597345887818,623451.938385529,4848823.2510694945,154.3756635011119,3.9410880035407847,0.6807767390777643,0.06398578191275255,0.012308029511970566,-0.03024329324826774,0.6397332761841875,0.004961386780832242,0.05273390177697754,0.030752589284315943
1630597345991577,623452.3475666421,4848823.3199639,154.38398993144438,3.9462376447004726,0.6452523353704466,0.09954879760021117,0.00975864041031752,-0.030805131681372975,0.6399348607736574,-0.002538668373789738,0.016027825065001437,0.013297748128819157
1630597346095215,623452.7544972029,4848823.394345443,154.39544205482247,3.9147029033562704,0.7366343170576776,0.12133750245459206,0.010467628118346017,-0.02991558489205989,0.6403384896447017,-0.0024116022881507425,-0.0281053116278628,-0.01493778707270651
1630597346199097,623453.1587523471,4848823.473377455,154.40854256844943,3.873416660447441,0.7857107158430137,0.12135272080969074,0.013613990262209138,-0.02854883050990598,0.6404422875569282,-0.0006100740196031576,-0.030284135846092283,-0.013483862885709012
1630597346302857,623453.5593410914,4848823.550094532,154.41989167610365,3.8420099463422672,0.7307416459882096,0.09110912595779785,0.015416922156695923,-0.02789765435339106,0.6402206413687778,0.0028943090539218144,-0.019889334351931416,-0.0035554430534038145
1630597346406616,623453.9575559918,4848823.620429028,154.42756542133688,3.836917821558986,0.6069872334090529,0.06402894327148896,0.014767603512658527,-0.027724093076873985,0.6399194666877012,-0.002234145665450005,0.02799234601679769,0.022794909788126788
1630597346510254,623454.3541970806,4848823.686163563,154.4342951680558,3.841945074687368,0.6378761401168743,0.06231555230673383,0.012125604834331631,-0.027269763524503863,0.6401264530324058,-0.004716757772646403,0.00035143225399195756,0.021614891250656194
1630597346614014,623454.7511174369,4848823.749740505,154.44104009075926,3.7983583931378218,0.6382855333345578,0.0737052811984088,0.00857414699456746,-0.02383740730409206,0.6401691511911554,-0.0007165923929102364,0.04040195747659753,0.045111984528699085
1630597346717774,623455.138803626,4848823.80994061,154.45072936763952,3.6771940777437564,0.6342069057186503,0.11193768519408762,0.003192104202511081,-0.02290742597643061,0.6404855005902599,-0.005924396040965905,0.022875830606391503,0.017788487932078125
1630597346821289,623455.5181162723,4848823.876412697,154.46315082347007,3.6460001356568266,0.5692677595038871,0.1285724699996963,0.003978499453293554,-0.02737184024969355,0.6413134629263825,-0.0045750733438766076,-0.005178005600487781,0.06429269374166921
1630597346925049,623455.8931933189,4848823.942675468,154.4757493545201,3.580705850976506,0.6776519494103475,0.11448249858081769,0.0018060727039998603,-0.03001627281717505,0.6413127501824901,0.015045309072527073,0.0006790582846207286,-0.021791531153909124
1630597347028565,623456.2654953486,4848824.012474308,154.4853710240402,3.5963825616561302,0.6631734874993535,0.06496262516690694,0.005150674797483491,-0.0332631442967505,0.6400378452135635,0.0017847599678429665,0.033935189996221686,0.007492057741472104
1630597347132324,623456.640139743,4848824.073854514,154.49016178323373,3.6198936525680296,0.6101349735267034,0.03322062698886406,0.0003839375639157858,-0.031478128846922276,0.640032918838148,-0.00025276711802676234,-0.025435068617396025,0.027100129541396317
1630597347235962,623457.0126390074,4848824.137402471,154.49114019177873,3.5770596180293266,0.5727619232216691,-0.03828652811358203,-0.0006773024016486819,-0.030052890345707618,0.639825385599574,0.0047672555698447675,0.01417982790585007,0.021985885121750197
1630597347339600,623457.381980354,4848824.200170016,154.49267705482214,3.5788132692417474,0.6422830760084461,0.06893113438853209,-0.003300996254260309,-0.028879020162949864,0.639050831958927,0.021262471405882562,-0.008375395690325886,-0.0008231695611306345
1630597347443360,623457.7519166793,4848824.267387504,154.50595298034125,3.574051671034787,0.6961085652012049,0.16709226895511453,-0.0022116939482084087,-0.022173506958647823,0.6375333161446706,0.015685208743623995,-0.17455399743644054,0.07939798992711598
1630597347546997,623458.1192627022,4848824.337650711,154.52233458986817,3.551348031466578,0.669179460302025,0.14130055935930413,-0.0018196126614914937,-0.014046718211368285,0.6374436063145144,-0.006145769306200718,-0.00996652167038671,0.013895449327105586
1630597347650757,623458.4816969828,4848824.413076752,154.53561636041962,3.4708660156934505,0.6969673515320112,0.10456456952122181,0.0028038288119521296,-0.007216362708693209,0.637672020125877,0.0018964814983626023,-0.05996295427966781,-0.058101787770714376
1630597347754517,623458.8359433373,4848824.483366895,154.54373286560502,3.3664022330942727,0.6279199289149039,0.03825468773648477,0.005824964657984376,-0.007311322167981584,0.6380376213272155,0.0006900147603445752,0.10030432305865387,-0.03160718468166164
1630597347858276,623459.1832672727,4848824.541909571,154.54561328060268,3.296621638867573,0.5779965281498479,0.008158370078300684,0.0038627380518931912,-0.01360262593054319,0.6377454725329047,0.0028323788060783703,0.10858952964492666,-0.12395984924725835
1630597347962036,623459.5283761478,4848824.597930448,154.54636258348825,3.3287432092347307,0.5295143228895396,0.005139410838766317,0.002027253178072701,-0.02113077682173651,0.637970666522034,-0.00954363587656659,0.024364164427340212,-0.001886373344731397
1630597348065796,623459.8760473981,4848824.656531864,154.5472322839085,3.3610598912986878,0.5626219525307994,0.020953480204486508,0.00025223537631571233,-0.022799642622446183,0.6391079169257783,-0.006948524369503831,-0.007139238401594699,-0.00773228832008258
1630597348169556,623460.2248336871,4848824.7173080975,154.5491630476776,3.3557895768653347,0.6095743946644852,0.020283270242831414,-0.0007195545721194784,-0.022896349844671742,0.640158231685437,-0.015116910152160766,7.213829087633466e-05,0.016617989945675943
1630597348273316,623460.5729650694,4848824.780170638,154.5505514512734,3.3418522402329973,0.6583161002902541,0.003246112601301074,-0.00051955004147926,-0.022788068781700987,0.6411956969209104,-0.006369828018601321,0.0066155262404425435,-0.05210607715748913
1630597348377197,623460.920154154,4848824.849002834,154.55096191314837,3.339861570294508,0.6607300105346785,0.015636354135674393,0.0034887383379152885,-0.024311384670612265,0.6421929294765115,-0.009750906153124654,-0.018844898886300008,-0.036579255598280735
1630597348480957,623461.2689845494,4848824.917609848,154.5564096414061,3.404140095524318,0.5858758864841133,0.08898763966836758,0.006469384951960373,-0.02297167033095451,0.6427225800453918,0.0011632059283368929,-0.0016816712121685744,-0.011151349978693955
1630597348584595,623461.6217544737,4848824.980175408,154.56703778525096,3.4328403384040795,0.6145512816031918,0.1256168692967432,0.006060118488608725,-0.018227541118088428,0.6427798969275211,-0.0074789846174985785,-0.06999275339014395,0.07692812485692398
1630597348688355,623461.976451396,4848825.0414,154.57973673113065,3.418088222082691,0.6118293978193731,0.10228134629766061,0.0054365153185378405,-0.012374554799906503,0.6438640110994978,-0.016848129369367332,-0.05907981294669019,0.05065361673970363
1630597348791992,623462.3284579703,4848825.100511196,154.58614992771078,3.3854793937561842,0.5460822471877844,0.02641214697826115,0.0044325911268282515,-0.011523302851699054,0.6447514455804984,-0.0025867749540541877,0.01061422253318918,-0.004259677437803613
1630597348895752,623462.6809520104,4848825.1560907215,154.58662636673535,3.411698143659121,0.4950629555411229,-0.01287677833426469,0.0020437006182248874,-0.013578357817611705,0.6448143988570494,-7.103346592540634e-06,0.03733010828976964,0.0390488376181665
1630597348999268,623463.0363621656,4848825.209428116,154.58485238723728,3.4638785114728967,0.5593411231901361,-0.021809595375663588,-0.0017951214248416274,-0.014119596006179763,0.6453859275220689,-0.019756187250634494,0.00936772001423566,0.016037341706126276
1630597349103027,623463.3986520723,4848825.264291976,154.58309077947223,3.522879790298053,0.5787786624988871,-0.0020062877846913976,-0.006162591758423917,-0.010874948796410239,0.6474610165085404,-0.021788891139641765,-0.08551059054030877,0.10112951925841847
1630597349206665,623463.7639175735,4848825.322722877,154.58372365441693,3.5481925701812655,0.5161815471296348,0.017520245953463933,-0.007414439333381656,-0.005886774834354335,0.6487531765460484,-0.004514456425768227,0.03891859940828139,0.035211498051580144
1630597349310303,623464.1302847179,4848825.377152538,154.58531684714757,3.534381332894065,0.5595369750377287,0.019556152127083632,-0.013174340005648665,-0.003514742807077848,0.6487133607515764,0.004672391670106943,0.04346740528072225,0.07290192687437139
1630597349413941,623464.4947988123,4848825.442424732,154.58813750013712,3.4936992706694245,0.6997818047430756,0.04111238129045596,-0.009904020948214187,-0.0037844556746274064,0.6493525529261069,-0.018275984645936206,0.039457906647906084,0.010571696367628435
1630597349517578,623464.8576876589,4848825.514397572,154.5938348502519,3.5013625424156736,0.6991194187360363,0.05672152180839346,-0.005296151370459393,-0.004799428152292062,0.6517064334802013,-0.013068528433527763,0.007160727843283008,-0.03096599477541725
1630597349621216,623465.2220040569,4848825.585183271,154.59894379936415,3.527207740391826,0.5694933398696864,0.03217151027457301,-0.00019485333643676773,-0.006764028685309503,0.65186490640619,0.009172943714003486,-0.021146030295568323,-0.010303513948208196
1630597349724854,623465.588305732,4848825.646791874,154.60013425591248,3.5281538345579606,0.5689972379396971,-0.023219174501736863,0.00038319169804586635,-0.01023646804677605,0.6510900348093991,0.005054754424255255,0.07559266270614928,-0.05279446376650995
1630597349828613,623465.9571927924,4848825.699355495,154.59480979415275,3.5508111222627066,0.5258048949164607,-0.06059480267939643,-0.003134543596056281,-0.015781892621006446,0.6508616699332302,-0.0001612184557106749,0.09522080963850939,0.025773857488522577
1630597349932373,623466.3303342389,4848825.747688902,154.5886607677969,3.6086195745976593,0.5010911297152448,-0.04034366557063598,-0.009958135929753788,-0.020549970705315,0.6512215599574451,-0.0024656019457512967,0.05667365099440482,0.047903585256876505
1630597350036011,623466.7071049152,4848825.801421091,154.58680352359397,3.661442231251533,0.5274682239028902,0.009944736587153377,-0.014081066820302792,-0.021302902394426722,0.6517724401410869,-0.014427307658372503,0.01793437173282745,0.009410387210620439
1630597350139771,623467.0870366687,4848825.865769027,154.59081558838886,3.673242505065341,0.6864250582197411,0.06811738601805005,-0.013462398607155037,-0.01974118908333746,0.6528937199831223,-0.011598655674787245,-0.07081449208730087,-0.023245667217390246
1630597350243530,623467.4673845624,4848825.941023141,154.59934817639493,3.6730511350963533,0.7472627988074765,0.0842272886416221,-0.006299900001399516,-0.016436071582283718,0.653497768667841,-0.007806966892257701,-0.0679833228401062,-0.006064171037888368
1630597350347290,623467.848442852,4848826.016976725,154.60741017598187,3.6861303282990407,0.7140373175356971,0.06847582486468712,-0.0013207280539426695,-0.013861120550870961,0.6539642359909636,-0.0034802536569377694,-0.06090532220262252,-0.02929374354825112
1630597350451050,623468.2310963572,4848826.089803065,154.6128659154418,3.7151213478234535,0.5941562351920675,0.03789152798400751,0.003533832910705781,-0.011164326237688364,0.6541353232853985,-0.00505342299779995,-0.0012001485400247602,-0.005119646576768322
1630597350554688,623468.6152471513,4848826.15140929,154.61492362360408,3.7114077073652516,0.5808589118072539,0.009183761105213628,0.0022037837105018466,-0.010122827104356781,0.6547377867665576,-0.0038856194844182597,-0.002410417238231432,0.027492560120819288
1630597350658569,623469.0018960009,4848826.206334776,154.61498318503112,3.7255251749085643,0.5673767630038189,-0.002558924166610462,-0.0013132960191215646,-0.009999439685032053,0.655361294141749,-0.005642155960311289,0.039620425257221974,0.014365932700109465
1630597350762329,623469.3895701882,4848826.261409724,154.61472311960895,3.7421976779191346,0.5476758847599332,0.0050362022950051315,-0.00447232550118721,-0.010064585263340094,0.6558511329542087,-0.00276792469082238,0.030558408876189616,0.04641553586401332
1630597350865967,623469.7773180237,4848826.322051777,154.61662452800834,3.749323288557032,0.59958320358662,0.028952264924179676,-0.005583265287670714,-0.009504083042126698,0.6563669220531397,-0.004772887274741845,-0.027260085987357886,-0.027599674894618235
1630597350969727,623470.1660212777,4848826.389832252,154.62046532138885,3.750039892120921,0.6759183396034172,0.036586773577452866,-0.0033529224751684995,-0.008504051715359815,0.657326000082535,-0.008397501729886868,-0.025606014405753694,0.006660211413416254
1630597351073364,623470.5547758142,4848826.461139727,154.6229366555298,3.7526009221882504,0.704562720214566,0.007877473266971559,0.001476982705670046,-0.0073447833842611035,0.6583070158178043,-0.008048058627214352,-0.035376082743819835,-0.04128698580710356
1630597351177002,623470.9447361937,4848826.528786593,154.6226300830531,3.777044331480811,0.593990366159009,-0.008285327410084767,0.004129596275417499,-0.006816246342339346,0.6594831801425528,-0.009574477991101834,-0.011527877644576176,-0.0015527703218670256
1630597351280762,623471.3363229582,4848826.587486088,154.62196430994288,3.7786040535799192,0.4922019384575958,-0.006200568378948959,0.0031830137863726646,-0.006073014679339159,0.6610815299201347,-0.027640794728023624,0.028196528751344062,0.030127199143361632
1630597351384277,623471.7272925697,4848826.639232227,154.62153620868807,3.7724934178520115,0.5439129668249242,-0.0020477873930036285,-0.0006633749558244066,-0.005980610016267556,0.6639636190185741,-0.029557068269903276,0.015259145867282551,0.03529456335611839
1630597351488037,623472.1185990226,4848826.692793959,154.62178469294378,3.7636631192896712,0.5706123140542017,0.013395036617517824,-0.002893319743321197,-0.005399141333149118,0.6667884566616363,-0.024627090409630695,-0.011271091124122494,0.025877275132298663
1630597351591675,623472.507393829,4848826.751728494,154.62372030214138,3.7504775750588584,0.5368613087138443,0.02587892760359165,-0.00173653248386381,-0.004581389274407008,0.6691327140199471,-0.02101082363371876,-0.00785675065562504,-0.008552371456070799
1630597351695313,623472.8941798765,4848826.812213331,154.62549242501834,3.7253478662387907,0.5758982210600841,0.00335041380176356,2.8267598412376525e-05,-0.004422543600684214,0.6716074078178725,-0.017074269488395424,-0.014843957400786529,-0.02319297402865709
1630597351798828,623473.2790670102,4848826.871794412,154.6248989326042,3.7078604150386627,0.579573198352527,-0.01656652126050463,0.002567695618311866,-0.004020560734204766,0.67411146518211,-0.023790021158039628,0.006487547775085449,-0.009026224419465873
1630597351902588,623473.6629376621,4848826.925135556,154.62307585886754,3.684626479520927,0.4931125847399127,-0.008462735906342438,0.002136647688324327,-0.004625469553380349,0.6764495489378245,-0.02327504623192479,0.018474420116823657,0.013169363779927539
1630597352006348,623474.0444970181,4848826.972399428,154.62302748240188,3.674857338482521,0.38707893341182065,0.0022663460326618635,-0.0001461874537132987,-0.004570573391338119,0.6782383830261323,-0.013437497607201613,0.01198601998348151,0.012797307839207085
1630597352110108,623474.422951766,4848827.018288502,154.62244061889615,3.6231167789242797,0.4632887563565987,-0.005148847439837685,-0.00279257087765069,-0.004479001429862656,0.680001599520781,-0.016980312885820525,0.00901133069905833,0.01642618346494709
1630597352213867,623474.7961219231,4848827.06696768,154.62234629101562,3.5626903466572437,0.5193031223573192,0.005945827525448375,-0.003990189031921627,-0.004409954111680939,0.6817899990513445,-0.017142978174422296,0.017136494355333983,0.009145798115881287
1630597352317505,623475.1625968273,4848827.118101593,154.6237687547296,3.504407140168112,0.48939805071196957,0.019069515516899983,-0.0027404588568034367,-0.004359729306134858,0.6830149265587049,-0.01290245964917807,-0.0072569561564258785,0.005772093683571938
1630597352421265,623475.5224578488,4848827.16494076,154.62474590760766,3.4356646000146793,0.36672006669876,-0.009252357290784524,-0.0038321515233191218,-0.003594313538123806,0.6840364136368714,-0.012984497133086012,0.02859307105592072,0.02796491340758058
1630597352525025,623475.8739575479,4848827.205566124,154.62288955945363,3.3474245721382236,0.37802675562741417,-0.021845811961710763,-0.0069436961935551,-0.002668681400361273,0.6850535960096243,-0.003898885123875945,-0.0015386073210291002,0.0027932460125284207
1630597352628662,623476.2148660691,4848827.242440985,154.6214047874923,3.2255654088442975,0.42251814944964,0.002899935803404163,-0.011544723912683241,-0.0015450448695872442,0.6843608648021654,0.02224136506414512,-0.01627942251123308,0.0261532001837885
1630597352732422,623476.5437204061,4848827.28773217,154.6226536624462,3.107055369164269,0.4771664778870043,0.013087052500196952,-0.01090916980574651,-0.0014017038753656155,0.6820976823824183,0.021945546272569682,0.0009582753386391136,-0.008148636609398165
1630597352836182,623476.8611550061,4848827.341485407,154.6234909100507,3.015953211493379,0.484203158886385,0.003394954599576945,-0.007137474078387985,-0.0028684732948990118,0.680182296600465,0.017842789680983247,-0.05016041438180715,-0.01775794020327636
1630597352939697,623477.1734054788,4848827.403374569,154.6228857210881,3.017800079611207,0.5940046066904529,-0.016570540326533614,0.0020738650651487256,-0.0034058723051908915,0.6780808325870877,0.02974442856728909,-0.07420886488424246,-0.08250658574282194
1630597353043457,623477.4864505928,4848827.460231414,154.6218288094365,3.0159317321501393,0.5084776620703683,-0.0020518276329827426,0.006982041193690858,-0.0015275618196776155,0.674871067210206,0.027995358897406144,-0.03718576895220713,0.03599791938907614
1630597353147217,623477.7993977767,4848827.503711445,154.62174960129036,3.0210999558005858,0.3595199665704336,-0.0029198409300432967,0.005415860566239569,0.0006312695934943082,0.6726678769491125,0.012631668247055234,0.026145919456425967,0.03980782531343609
1630597353250977,623478.1118037195,4848827.533336212,154.62039303325338,3.005039799990334,0.24107912823297212,-0.01925051638422958,-0.0029216227842712157,0.0011626334283463282,0.6712405299346926,0.018995460273859198,0.06170562761955971,0.06248092396070402
1630597353354614,623478.421643917,4848827.561901647,154.6178597022086,2.9735656474535337,0.348123443292627,-0.02417237338641258,-0.01070277662459446,0.0002445766173933653,0.6690526082808791,0.025019167139791864,0.05587623842545502,0.030081828504521266
1630597353458252,623478.7290094671,4848827.599663943,154.61602077220448,2.9459668709285296,0.46792935679123154,0.00032420380793444885,-0.015236440216865613,-0.0003852582014167748,0.6671552697625526,0.011225516594223774,0.01536303025697027,0.013695194520091079
1630597353562012,623479.0335010003,4848827.652764725,154.61731900501252,2.924920056117387,0.5330765802961467,0.016551084998525707,-0.012596650701647687,0.0003189552307507897,0.6668193980025664,0.0006453182158825568,-0.02932225219262401,-0.03280615339246892
1630597353665650,623479.3360481033,4848827.710154986,154.61933176468935,2.930514720612008,0.5020208239454791,0.01789324956112815,-0.008179621008641166,0.001575649825405114,0.6656532138469793,0.016897901825866885,-0.027116558246762196,-0.018322006527631225
1630597353769409,623479.6385061351,4848827.76335302,154.61870073478508,2.896311376277751,0.5225391178475814,-0.03382748489491989,-0.006491843110335475,0.0027717758814530397,0.6629515594495468,0.02672096259459033,-0.014087219094532016,-0.03876475899159555
1630597353873169,623479.9378294842,4848827.815817622,154.61337787321708,2.8618179907450285,0.5146705739051328,-0.05403640493349688,-0.005282469058314513,0.001011958593991238,0.6607410265412569,0.0288149129153397,0.0069441802853180854,-0.03872572330566408
1630597353976807,623480.2355961546,4848827.865718102,154.60870652544622,2.8735306839613455,0.4454535674910324,-0.03380355470439627,-0.005235986794286788,-0.0013801993007192509,0.6562436129753532,0.05649699268004881,0.009451524130716876,0.003997876793855271
1630597354080567,623480.5348581028,4848827.911432946,154.60605331886592,2.888731265036645,0.42371196773376185,-0.014290546064067199,-0.008023268449314353,-0.0026056993485760118,0.6498773373108341,0.05980124031287363,0.037172709936597076,0.041034267396202355
1630597354184204,623480.8348680956,4848827.956734689,154.60459080566912,2.8952770971363937,0.49524480260519144,-0.01847383690337146,-0.012663820798395922,-0.0027711573247036414,0.645514277367644,0.03327202074617301,0.030593143528972234,-0.0008632856450721451
1630597354287964,623481.1365261181,4848828.006559692,154.6023094475659,2.9080871135901756,0.5169200866776419,-0.020995636074666233,-0.01508506393685321,-0.0035665035602230515,0.6421834940527962,0.04303541773953173,0.016245179566689773,0.022397176357360278
1630597354391602,623481.4400900495,4848828.059208078,154.60057026262186,2.9455417985147516,0.5055546870975558,-0.0071327565332448845,-0.017477407914873778,-0.0038491095153906463,0.6368152242400063,0.06260148878282333,0.009654742130168795,0.010446980012148289
1630597354495239,623481.746177845,4848828.117857625,154.60020281785398,2.9643433449070646,0.5920302182211273,-0.005924740088758091,-0.017672267492722053,-0.003678302122213121,0.6302485654767047,0.05792661488826755,-0.009020050129977208,-0.011112569354375596
1630597354599121,623482.0562161835,4848828.181863335,154.59834891977502,2.9990367610053448,0.6649340219936265,-0.03042094497779285,-0.01731125781100741,-0.004309960427686652,0.624393113573225,0.05347991145915404,0.027038155016329817,-0.03906924400961586
1630597354702637,623482.3712937926,4848828.249544613,154.59505546117282,3.081782825710943,0.6748531453223824,-0.030334045776601877,-0.01652760037845586,-0.0053248688948792314,0.6187138594979873,0.05356554206149955,-0.0021283749317055982,0.009754528775994517
1630597354806397,623482.6967697815,4848828.319506084,154.59248283037823,3.197492508762813,0.6283358885450266,-0.023648473894999158,-0.016464639878029857,-0.005055190257587256,0.6128804729727257,0.05826523447816072,-0.0056295211121379736,0.01187515722331181
1630597354910156,623483.0335285665,4848828.387848486,154.58956730866163,3.3009816524860605,0.6733920023831419,-0.02959266747546372,-0.01977370214445572,-0.003974389808629705,0.6072941815311313,0.05374276962012315,-0.007114876219526507,0.030872243121664568
