GPSTime,easting,northing,altitude,vel_east,vel_north,vel_up,roll,pitch,heading,angvel_z,angvel_y,angvel_x
1630597331060160,623422.8507264568,4848820.469537824,153.97837525305573,-0.00023600035746602156,0.00020744518875132314,7.492050848042607e-05,3.126240823209351,0.031865019174347815,0.25671182385755154,0.0013391770999785719,-0.0057982337657370014,0.0011829148208433245
1630597331310779,623422.8507496119,4848820.469538635,153.97837410724182,-0.0007822653336378358,0.0004910181032242396,-0.00043769191742877887,3.12624233709563,0.031906540250674,0.25673404594601285,0.0015751255108649713,-0.000630741890492815,0.0005766975360915525
1630597331560759,623422.8507214895,4848820.469533638,153.97837444041494,-0.0008821781803259654,-1.4913897117091115e-05,-0.0006489792392435016,3.1262326992232903,0.031850905955053854,0.2567663648574671,-0.001820223460365015,0.0006438952694511877,0.004518156828489723
1630597331811377,623422.8507121729,4848820.469518805,153.9783729225513,0.0019671929031951896,0.00019949185559358344,-0.0015398115872261038,3.126204048019744,0.03183496350353599,0.25674375885519973,0.00037865438313561516,0.0007596417630318113,-0.0006984613630889276
1630597332061991,623422.850767326,4848820.469504556,153.97837031416287,0.00010943520521095417,0.0002883714952184945,-0.0005575365298200202,3.126175886104716,0.03194056789766131,0.2567485987355767,0.00047501548125146383,0.0026666202596244215,0.0008667299104507569
1630597332311983,623422.8507491404,4848820.469477827,153.97836907193056,-0.0001688631192096851,0.00015805189161616784,-0.0003522294124044876,3.1261254440347597,0.03190857516360305,0.2567021358435589,-0.0009520492003315412,0.003949002118263109,0.001160189884902383
1630597332561966,623422.8506988131,4848820.469482955,153.97837061766006,-0.0010174776727934585,-7.344233197212953e-06,1.2547928910725182e-05,3.12613563556132,0.031814033669023564,0.2567203666355767,0.001087719333613614,0.0014174080274344553,-0.0011092176306158772
1630597332811958,623422.8506931469,4848820.469460521,153.9783696637879,0.00038979469476313965,-0.0004297773374874893,6.625923845237119e-05,3.1260939174142086,0.03180007994784199,0.25670364160101217,0.0006667161910764223,-0.0029724637373030097,0.0015090954022401295
1630597333060689,623422.8507228045,4848820.469492952,153.9783713584288,5.292084793101723e-05,0.0008283855682240705,-9.219933459719358e-05,3.1261558173256567,0.03185761103376363,0.25671289562301075,0.000812059459388647,-5.659518681595659e-05,0.0025105979402706637
1630597333310682,623422.8507297339,4848820.469456259,153.97836850060838,-0.0008548478113714649,0.0005593722762155753,0.00018416638776638152,3.1260858219997663,0.03186869613662399,0.2567256389879771,0.0005795958352208064,0.00044453756885936256,0.006089843389194984
1630597333560044,623422.8506962947,4848820.469514771,153.97837331714462,0.0002018079487644246,-0.00011587997996275577,-3.064958885355386e-05,3.126194686849634,0.03180948929224215,0.25667505438715976,0.004484675648102528,0.005443044213232107,-0.005923539589121395
1630597333809408,623422.8507204299,4848820.469504953,153.97837264751547,-0.000259605940031239,-0.0008558948642555188,0.00046246399617640854,3.126179180795585,0.031855252792299664,0.2566968480375944,0.0010245098023292077,-0.00496928399070639,-0.0018159840995149693
1630597334060017,623422.8506760274,4848820.46953132,153.9783734738256,0.0005715990888620928,0.0004906841102385323,-0.0002509839880115989,3.1262260302959364,0.031761422305072035,0.25674464560439475,-0.0001476860254901853,-0.010394087772008995,0.003632882724261766
1630597334310677,623422.8505848888,4848820.469493077,153.97837389128796,-0.0031651261068146625,-0.0007284957207878415,1.0406309771269842e-05,3.1261537392848737,0.03158947399421418,0.2567203105365922,3.7006259326116493e-05,-0.00023263184960038697,0.0006084462096392054
1630597334560616,623422.8505560138,4848820.469487498,153.9783748120903,0.0005539517109037467,4.961720027614415e-05,-0.000643464883939598,3.126144135209502,0.031542352677326135,0.25669304910810375,0.0002747174199229889,0.0004879791832504704,-0.004196939897298548
1630597334811232,623422.850595698,4848820.46944102,153.97828139288762,0.0016334852779945608,0.00022803892515012653,-0.001707735844407841,3.126382548717772,0.031868077107751906,0.25697681100079744,-0.0018056278155317122,0.007017641061392514,-0.0013043461616214854
1630597335061215,623422.851211248,4848820.469614969,153.97800088903512,0.007030733557757026,0.00019706020976869069,-0.001928163167661001,3.1268018812929004,0.03216557408625279,0.25644123016517134,0.003906410779317853,0.0049440594142694345,0.0011690421634440943
1630597335311212,623422.8607986644,4848820.470949726,153.97699223965407,0.07181545198151316,0.015588001547590833,-0.002964785148586378,3.126893985360938,0.033347183356334,0.25547163556785935,0.00252875891108763,0.0015922459599263799,0.0026705813539798424
1630597335561194,623422.8837846701,4848820.477329513,153.9789363665922,0.09643577680869495,0.026187087420910322,0.01044005261526713,3.127484967825613,0.03190801459854968,0.25395856136533074,0.005511017492613561,-0.011129161141148747,-0.006993507976732039
1630597335810561,623422.9118305718,4848820.482137807,153.97979247748066,0.12927155174369265,0.019613503224781753,0.005498693526791507,3.1272825893465197,0.031833651689699954,0.25153220155424294,0.01709284807190164,0.002724681282557407,0.000965990678810873
1630597336059931,623422.94988098,4848820.489099439,153.9808130873749,0.18672027676548586,0.03871593358768747,0.003013950325515406,3.1271496690777143,0.03191130214823395,0.24755275603181115,0.018284535961086083,-0.004832682004525802,-0.0009141088813652084
1630597336309291,623423.0144231193,4848820.500878417,153.98130817897993,0.34874302186936557,0.06163508645985574,0.00384210822112609,3.1272652564999435,0.03307612418705468,0.24037461631139628,0.035522019457072784,-0.005016475733518987,0.00847299778012804
1630597336559902,623423.1287271476,4848820.523081149,153.98452794607087,0.571303605209863,0.10568188984906382,0.020724677276676897,3.128244225591145,0.032337429626260884,0.22778070044159823,0.06617478850914868,0.003548925570201445,-0.005005384638818228
1630597336809892,623423.294289199,4848820.542835623,153.99076432064567,0.750695094993395,0.07267483177496449,0.02128160375557302,3.125523968265676,0.03207922894411082,0.2087209566961999,0.0943089406612946,-0.004140215171934569,0.022440109330283682
1630597337060502,623423.5082050095,4848820.562772625,153.9953364539807,0.96450559814032,0.12080137262351935,0.017555330773444826,3.121597156430871,0.03415012743530866,0.1825146942877941,0.11219248907078566,0.0002459330880899905,-0.0027692415236106253
1630597337311761,623423.7795135934,4848820.602690915,153.99893814097788,1.2007906269792235,0.13040053741635638,0.010267463213645543,3.126130447116145,0.03363190630134199,0.14996572061772945,0.1387765258162101,-0.0017476666900242215,-0.01633927866656038
1630597337561755,623424.1081394923,4848820.627347108,154.00259583262394,1.429441377304328,0.05148158220658072,0.024511705186123216,3.125719866353087,0.0336111513969405,0.11464722614671033,0.14445390774182984,0.002499170419287308,0.007832446417558848
1630597337811741,623424.4898253575,4848820.635467851,154.00988918669918,1.6368138691020555,0.03739846420171354,0.027106149659752755,3.120706774598081,0.03192627991713831,0.07960328692224002,0.13601034215688534,0.003574629854833648,0.01381814729059792
1630597338061110,623424.920229633,4848820.654914237,154.01535202985679,1.8327568519268949,0.030225533961359657,0.024438874302794372,3.1232343887468113,0.02946838180868173,0.04692996886400615,0.1187546202958443,-0.005170441090072321,-0.011621513285036151
1630597338309847,623425.3980770478,4848820.651357874,154.0253193502396,2.026590879026247,-0.04007062235437579,0.05290299848093089,3.1200276154164897,0.02445927481081396,0.022902741859233015,0.07773460303149764,0.03696540940610697,0.023761369045007
1630597338559211,623425.9173514855,4848820.647780482,154.03464957646693,2.1604702154980986,0.043048420688171725,0.022979777150126827,3.1183230183896535,0.02129828931768988,0.007925967560241946,0.03972445135253951,0.007769605483306063,-0.013843118100842199
1630597338809175,623426.4776065442,4848820.657092393,154.03874055394837,2.340552572411957,0.03546493184227759,0.01636447864378767,3.121664627118966,0.020546048230017832,0.002280010639549024,0.00871706465424131,0.01277917318746581,-0.0035259493912155565
1630597339058532,623427.0841416053,4848820.654523576,154.04450625117923,2.5252998136409532,0.023485245713618614,0.023069745169390088,3.1198192838703496,0.01856245618376682,0.001239246181640501,0.00277403000238307,0.007076033023327431,0.00962982906638249
1630597339309151,623427.7377619449,4848820.662026356,154.05027800398014,2.695944705896886,0.05036875434332241,0.01666848285424266,3.1216713984965243,0.017655759867830523,0.0018261928994669756,-0.005716002218413192,-0.0014135309060640546,-0.003447497291120285
1630597339559766,623428.434241362,4848820.67099664,154.05418938981904,2.86264300927783,0.053136134665113376,0.02403774920414454,3.123180299405864,0.016354218754917896,0.004385790570079806,-0.013757520503733286,0.0031820509860097015,-0.010113994147240095
1630597339810383,623429.1692356641,4848820.684827447,154.0595937535768,2.9976274015807105,0.036271042164408185,0.01325282405790966,3.125291092936456,0.015795642375086783,0.008618250554926706,-0.0176430998854,-0.010382158957637692,0.010552276298579955
1630597340060371,623429.939845245,4848820.696241215,154.06289681265866,3.157187372235568,0.09188010646023857,0.021728598127449768,3.1235248745386253,0.015877530185625224,0.015876180849931597,-0.03945511700715903,0.0035170265325345056,-0.033352747480160046
1630597340310995,623430.7475641776,4848820.7425619615,154.06899423375194,3.2960021364976826,0.17658311338194987,0.013051644817136103,3.132776494278241,0.016103755157727925,0.02776488941489073,-0.050041085276111084,-0.007783394602172748,-0.05726711025628013
1630597340561597,623431.5886177989,4848820.794919716,154.07304036276273,3.4284295290111135,0.13475859514546687,0.03288752329772075,3.1398878598420854,0.01576445140780717,0.038725975293635986,-0.037627364021269046,-0.0036547103344762247,0.00850609717426985
1630597340811584,623432.4554413364,4848820.842159551,154.08195668206375,3.488692208114497,0.17202223066542724,0.03649064252478418,3.141414515315689,0.01707845080195937,0.0479584065019102,-0.03575179499865789,-0.005483472306351278,-0.03930601442091808
1630597341061571,623433.3369726829,4848820.909237549,154.0925771820136,3.542534951511117,0.2328740851836269,0.02789221914176712,-3.1346963990396555,0.02377213950689695,0.053127452540655984,-0.00890587816730148,0.007027506692771287,-0.04737591154102193
1630597341310938,623434.2377350009,4848820.965373656,154.09960603073188,3.6574270703492036,0.15639408879696048,0.032997407138925,-3.133903375124133,0.02943661899192392,0.055969339566615345,-0.011651646511010793,0.006498631872523473,0.010280906865014101
1630597341560299,623435.1635413493,4848821.024169167,154.1154487678747,3.7523390898683195,0.27346718698978617,0.10186778612816257,-3.133843800081913,0.029639006783696912,0.058326436674305385,-0.008734100793647259,0.011909481646155599,-0.008595711420191821
1630597341809669,623436.1068200504,4848821.09279658,154.14055733320558,3.80738208314755,0.2571114096217604,0.08785798931842626,-3.1309808383945463,0.029558152159910613,0.061521233375895705,-0.015205770952946965,0.0007723966170244625,0.014260912129626368
1630597342059028,623437.0654757326,4848821.1512183,154.15914492728118,3.855746971504853,0.3006127382662637,0.07551770487837997,-3.134299165338476,0.03455303702818611,0.06607750071458178,-0.036950825717938125,-0.06250041369505456,-0.0042534395359859435
1630597342309029,623438.0415406646,4848821.229873998,154.1835835626095,3.928160506277657,0.3880188843979763,0.11650202086270509,-3.1337008031905045,0.04014410872317763,0.07569197750784455,-0.04328258252559085,-0.023094514108248154,-0.014557530928731468
1630597342559015,623439.0361265508,4848821.316375725,154.2109739003517,4.0170393921711725,0.405561278675387,0.10346190918272574,-3.135115138839986,0.04083635082370069,0.08684642052798427,-0.03573411555703558,0.009217372553613015,0.014686400005405649
1630597342810252,623440.0564255057,4848821.420224387,154.23902278042016,4.158644267050283,0.45531109572318657,0.1116312512683166,-3.1349006885710935,0.03256623967253204,0.09578626835310174,-0.03588185412649143,0.08782130887635206,0.0005218954294840026
1630597343060862,623441.0712895055,4848821.544061482,154.27466403867862,3.9206511058112166,0.4099823191154852,0.16570667179271287,-3.129007670974137,0.027223826813146768,0.10499014690273559,-0.03853169362084629,0.010031197570529242,0.014176662799051392
1630597343310853,623442.0595289348,4848821.652506231,154.3067056445601,3.94305084747057,0.4267942912313746,0.08288556268453048,-3.1307063460464093,0.040842537401739154,0.11435576439951015,-0.035692272487193664,0.003952568467843708,0.009931103035283976
1630597343561465,623443.0374622964,4848821.784776185,154.31349221394424,3.8695721391224245,0.5328948332038149,0.0901414787678157,-3.1268468547561317,0.05017508137182088,0.12248230435082148,-0.025550025796621887,0.006698059851268617,-0.040130977195298775
1630597343811457,623443.9999619249,4848821.927215432,154.37468706924622,3.8411227820454594,0.4559204476427717,0.24644805373141948,-3.1220244479771164,0.03258855355463929,0.1315483002082978,-0.03252555187097462,-0.036866627802486375,0.016839474685735673
1630597344060817,623444.9281803238,4848822.0536575,154.40168164001486,3.6475948181540008,0.5077191925889571,0.035904553919890725,-3.1257300604022094,0.035064597998500334,0.14065534514762693,-0.042283516925391174,0.0013607463283601751,0.0018240246870775876
1630597344310190,623445.8373838032,4848822.2020795075,154.422279196844,3.6546375667230246,0.6062222783221288,0.1301733865789156,-3.1220817090851347,0.0389366792956765,0.14987243413506507,-0.033281256990132936,0.006549970511331862,-0.008123030540191043
1630597344559553,623446.7552840192,4848822.349203825,154.45319270750124,3.708159821182507,0.617259199171294,0.10651916183513155,-3.1236094287042273,0.036555087681000104,0.15807911044044856,-0.029573475753433127,0.00406201833196427,0.014591464214445394
1630597344809541,623447.6931351286,4848822.50697558,154.47869969547415,3.797931551702748,0.6906377340606281,0.10929749540188041,-3.124381884653773,0.03685179399864044,0.16463939983381468,-0.021613973877044536,0.007756425432361463,-0.004464186729761681
1630597345059531,623448.6574534014,4848822.6734564025,154.50677548837112,3.911635762263344,0.6967529173303998,0.10380615494154039,-3.1256621717530937,0.03432169881122091,0.16925080614808563,-0.017293427904687523,0.011158199136645123,0.009055596531107386
1630597345309519,623449.6479537454,4848822.842730397,154.5308786086231,3.986370627392579,0.7458908821993845,0.10305314963901449,-3.1288512776473776,0.030049585700325558,0.17275046969128388,-0.01349301536114188,0.04965760215283532,-0.0109147157915974
1630597345560134,623450.6445348157,4848823.03119916,154.5588101252633,3.9624782649998456,0.747087221444918,0.10879527752955848,-3.12480703860884,0.029023738027033397,0.17470436133282236,-0.009470412389701428,-0.018150236571397155,-0.005868133087964896
1630597345810747,623451.6396549664,4848823.203709079,154.5809904486152,3.960125252413492,0.630965612444714,0.05890685410147194,-3.1277644006033682,0.02899091747722646,0.17469642238110147,-0.000480249849828404,0.0032336486847424476,0.035173788378954386
1630597346061361,623452.6281699128,4848823.371667647,154.6013350601397,3.9380224723344193,0.6551179670712548,0.11730081755785818,-3.1313634338084233,0.030119746371862162,0.1743396437207112,0.0034796218877811524,-0.008237106142400284,0.013906555205867381
1630597346311356,623453.5978343284,4848823.5594332535,154.63054520708675,3.859799547030924,0.6464677344643807,0.08597295985878765,-3.1260431231826855,0.02780526747408165,0.1743556140782464,-0.0035051034852689625,-0.009184564525198552,-0.016184426811474105
1630597346561343,623454.5553223623,4848823.720693314,154.64738565603002,3.891725445618017,0.5727858709805629,0.04925445543652679,-3.1302166593432728,0.025364893440992468,0.17426291745879038,-6.593949977296611e-05,-0.07582804621283594,0.03503057393851544
1630597346811332,623455.4873706999,4848823.871069676,154.671852416916,3.6379260993361857,0.579041761616697,0.13557303390175296,-3.1372398701929214,0.0267609483285803,0.17327950069568895,0.0014981238927381968,0.06879903428922378,0.030045212796114273
1630597347060701,623456.3881061904,4848824.032439923,154.69714386039573,3.620517780755922,0.5714752975069848,0.04939443427197075,-3.138133350831832,0.032697578922225086,0.1745552439091124,0.002397459744891751,0.013563721668604815,0.07489218699818402
1630597347310066,623457.2829354232,4848824.181722039,154.7009604825266,3.5634104394697705,0.6194874807443194,0.038528532493694104,3.139165778402972,0.029694064239866057,0.17513948432623047,-0.013043974598854013,0.06385160690082209,0.02702476519192406
1630597347559432,623458.1659867358,4848824.345940804,154.73407143915279,3.5397124294770794,0.7242939963656492,0.13870283286078328,3.139837365116373,0.013399605481041887,0.1771063302432508,-0.0027089458405027723,0.0921463642526606,-0.03168863734525464
1630597347808792,623459.0205504341,4848824.515223689,154.7550963280426,3.3186415336139197,0.6024657121556485,0.01330510325345477,-3.137172184906399,0.00998797506416755,0.1766779122515607,-0.0070156912174366174,-0.14025631088534263,0.03743550685684771
1630597348058157,623459.8551342648,4848824.651992935,154.75706153946135,3.3548234062338573,0.6103169046007166,0.011924447591177487,-3.1414459756880118,0.022696564492286794,0.17551424363744836,0.013417000314890572,-0.021502919479674903,-0.013552188095364771
1630597348308783,623460.6964972258,4848824.803282312,154.76055764041203,3.3308106676427616,0.6778385710170542,0.0023380239300493377,-3.140970992537007,0.023231242153772712,0.17309231270135067,0.01199820552518466,-0.026631274826536044,-0.02740156948233625
1630597348559391,623461.5398579176,4848824.966702901,154.77405619253594,3.4225865040569055,0.6273051960681714,0.11235569449471536,-3.135040078291119,0.019664314765884938,0.1719058106990876,0.000982840557547619,0.08076212693136037,0.006559721444632722
1630597348810000,623462.3920223309,4848825.111439205,154.79652774661054,3.382868116529501,0.5641679395622138,0.017457019329722552,-3.1373828661495224,0.011944497111394007,0.1697228350755048,0.004482579293330648,-0.026095975770650884,0.02635062980352841
1630597349060618,623463.252435516,4848825.241027449,154.79362065423769,3.515659403584853,0.5164729593235826,-0.016044232170616086,3.1377143895920954,0.012537285022024475,0.1680033893581034,0.022332740219165915,0.021407410719603986,0.07627054690133417
1630597349310619,623464.1321390468,4848825.374545294,154.79530273350525,3.537414124035297,0.5366173147076262,0.01983116781533935,3.1283917299694606,0.0035132393553400885,0.16583316342115692,-0.00461222790012169,0.013664734474210852,0.08282756668445991
1630597349561224,623465.0121537958,4848825.544416521,154.80627484450224,3.519699648938497,0.6238988197913655,0.05020793153841114,3.1387920222327517,0.005622428647027135,0.16236389783552754,0.004468076321528601,0.009581104333310832,-0.07381063408093932
1630597349810587,623465.896195068,4848825.690534479,154.80599649291986,3.549907166069069,0.473149554340771,-0.0702906037427596,3.1396854380045784,0.015185277618033307,0.16379966863443501,0.002337770048041814,-0.01847926998713046,0.05714005303979506
1630597350059951,623466.7992165255,4848825.812529851,154.79709210752404,3.661872298371176,0.5998925639062954,0.022693574903326325,3.1278252772482165,0.021419629211452663,0.16251623931800208,0.017495211143918506,-0.01595511978403288,-0.027407087786712647
1630597350309948,623467.7142118271,4848825.988834217,154.81465808358718,3.6809574020870666,0.7319521019075443,0.07775189235418231,3.1381745082225203,0.014661339457715823,0.16061495214299454,0.008012940851131153,0.021475659201799273,-0.05880523410359944
1630597350559304,623468.6344965464,4848826.154389185,154.82494121279697,3.7095658124394597,0.5852014517046281,0.0075368250702599615,-3.139474508669788,0.010073306438016055,0.1597814310649572,0.007360016537872764,0.025866400816312956,0.013170459947401809
1630597350808672,623469.5650790987,4848826.285616251,154.82519840718498,3.7407645912616387,0.620542900235125,0.018255098123569843,3.1354017073815394,0.009938112376266682,0.15847712623878843,0.003923099576031519,-0.010166517053162292,0.0034196513746876252
1630597351059289,623470.5035171552,4848826.451524112,154.8327785470565,3.7496245041546956,0.7064717031653724,0.011827612631948543,-3.14094029183678,0.0074524257728005435,0.15634559276322446,0.009266774232567457,0.0073569783318195685,-0.06488292072806057
1630597351309905,623471.4477224604,4848826.602661735,154.83181174037227,3.775694330709237,0.5263655889733919,-0.002267489372954505,-3.1395745057586377,0.006231733895437196,0.15281528415614717,0.0260366687945437,0.006924571758137899,0.044026893899807996
1630597351559890,623472.3894079083,4848826.732837665,154.83301878811258,3.748086313377341,0.5847418188161589,0.021330658007741504,3.1393147430321027,0.004785525433352437,0.14610515274533917,0.018670224925373936,0.0019162869059318824,-0.023685500794686388
1630597351811131,623473.3256152102,4848826.879055212,154.8346748063321,3.7138961691172696,0.48346998638094907,-0.0167205794092662,-3.138979485036002,0.004132553561050977,0.1401435833320759,0.02237443372581128,0.0066347968828800764,-0.0048071006860887396
1630597352061119,623474.2457094766,4848826.996057727,154.83280504785043,3.6549059398146735,0.3899090905277886,-0.00891804555783484,3.1398843578040836,0.004370284786342776,0.1354423819620446,0.016146151865142407,-0.0019307887859715898,0.04399715710150203
1630597352310487,623475.138923412,4848827.114192976,154.8336326768065,3.5106684466792215,0.47239668319858596,0.018845225340577025,3.1388583266040704,0.00441590668426399,0.1316081238443372,0.00884080286269557,0.008947054815174502,0.004075176773020833
1630597352559855,623475.9901751642,4848827.21622414,154.83215280860034,3.3084086617335844,0.37977452772959663,-0.016448411992305973,3.1333432999200577,0.0020577683197519733,0.129524345103056,-0.0031990266488295077,0.046287437090849086,0.07941369707577667
1630597352809846,623476.7819196492,4848827.32531652,154.8333633914959,3.0275065398176135,0.5339029432034192,0.004788391498631569,3.1330557150644345,0.002354985899832502,0.1338480866882565,-0.015000144939009528,-0.02686521267227438,-0.05559485858975302
1630597353059213,623477.5341457698,4848827.469042211,154.8317905715538,3.0178882783011796,0.4887087504924638,-0.0011917920293884237,-3.1348033461148077,0.0010301074214442846,0.1401540923405383,-0.030800533002963197,0.05970587020322192,0.009851654466676707
1630597353309203,623478.2860853246,4848827.546890038,154.82902816522267,2.9811745206738283,0.32479901232330344,-0.023556536486204635,3.1336767732573296,-0.00060023714230277,0.14442125022903288,-0.02525810069077681,0.0012784439221613872,0.07988678812570102
1630597353559814,623479.0270057705,4848827.648912359,154.82726352011534,2.9216065233772497,0.5563624314971531,0.017397403215125347,3.128897119579408,-0.00031158488175663917,0.14772904400053666,0.002632067447287079,-0.0022007001065185525,-0.04560912815853477
1630597353809807,623479.7549717954,4848827.78309261,154.82680643923504,2.8771793726077233,0.5200145553726453,-0.055579546714804716,3.1363291638234183,-0.0021468452899720924,0.15245409827171352,-0.02256744440480635,-0.02279376649783022,0.007958877139555646
1630597354060422,623480.4771719666,4848827.901515681,154.81640783826361,2.885080287548945,0.43096088511285663,-0.017892898989673476,3.1347056755372558,0.002459379161069512,0.16349745067450844,-0.06043600165350503,-0.0006424682409536667,0.055566996379442006
1630597354311033,623481.2045696629,4848828.014488863,154.81176842901436,2.9260858400038257,0.4597446460863978,-0.020604201036644353,3.125603814927274,0.0035719437748933216,0.1733479966383582,-0.047964766007055466,0.001097882441164881,0.04661939621111661
1630597354561026,623481.9428574633,4848828.154184856,154.80926561872622,2.9956946393520028,0.5805766996747104,-0.022908792850771974,3.1241381067121896,0.003955262863938997,0.18805051912922593,-0.05256753202577367,-0.0003828590264410275,-0.005673139613661275
1630597354810391,623482.7106259642,4848828.318769161,154.80235521798477,3.1974399202348986,0.6673396740790289,-0.023990561685976488,3.1251266927823913,0.005134480292018073,0.2018937472742868,-0.0572179386069226,-0.012115354952841384,0.002858269206170113
1630597355060382,623483.5412497709,4848828.483593326,154.79433950321206,3.452230922517233,0.7053380580042011,-0.033547655244100714,3.1156395679697018,0.0025154347172823615,0.21532550859082822,-0.05639534754417234,0.01738944334738583,0.04829179737341817
1630597355309748,623484.4265980866,4848828.697609937,154.78959015996227,3.6357880236900777,1.0449738907516521,-0.00958940461228953,3.1172342832813813,0.00048142525753005566,0.228887046294688,-0.04549784229886677,0.03208379184692066,-0.04107511708836045
1630597355559113,623485.3703083463,4848828.941251352,154.7793794365301,3.9091384664509117,0.9299566049888013,-0.06020756421028022,3.120557418771647,3.932685691520837e-05,0.2420822798544676,-0.046122785669596475,-0.014236127071783768,0.06096062670693703
1630597355809107,623486.3844533735,4848829.1690571895,154.76250482376125,4.158100109453738,1.1240013133754987,-0.061428940025216316,3.106274093067156,0.0022343195757246505,0.2522387118552025,-0.030328954428091356,0.014934595023879012,0.01982519525381739
1630597356059099,623487.4366230716,4848829.486776676,154.75704315484816,4.214037469844956,1.3454220872137466,0.0033736987233572505,3.120837355735318,-0.0016303620927674981,0.25725114709939767,-0.03274619120703954,-0.03110317724602823,-0.09764142794210576
1630597356309111,623488.521808964,4848829.797370509,154.75086751827985,4.416193639550608,1.1976889334868366,-0.06233460148454089,3.1264900656841084,0.0035250863926048395,0.26933381033879106,-0.03827638068777107,0.03152775695694347,0.04534966002798329
1630597356559076,623489.6369988186,4848830.0973742,154.73327978685634,4.463155753593802,1.4068494857538558,0.0020955686338748926,3.117412931985967,0.006290211322697706,0.28332121362643886,-0.05400943298938642,0.04622846026338251,-0.008668642070963174
1630597356809695,623490.7518952037,4848830.492427482,154.74280258463037,4.456700752678556,1.5501153842577016,-0.018906259312060962,3.1381727342148436,-0.0013154092449337983,0.2969029713350655,-0.06840987224404091,-0.06043118767207072,-0.07139287743065878
1630597357060316,623491.8834830757,4848830.839629507,154.72660572621365,4.544840024518385,1.3779191384849003,-0.05849014128332347,3.1286690409575364,-0.0003472322227093879,0.31203772463192825,-0.05186669177319524,0.018957451297212533,0.06308203037620211
1630597357310919,623493.0165405035,4848831.218312312,154.72077114708054,4.5181457842035275,1.5881626372232382,-0.0015936417409815953,3.127279507700037,-0.0029987629610494703,0.32332012449110153,-0.032335745544960895,-0.010452809321072088,-0.06328162089642565
1630597357560914,623494.1424015571,4848831.619312178,154.71244764318664,4.528370193830853,1.5025550704963717,-0.053255036639708646,3.131410930594232,-0.00029795241291927894,0.33293029854818007,-0.04741152954732892,0.009327161290567603,0.02146088715838511
1630597357810284,623495.2740337874,4848832.020172205,154.70231432897063,4.554721475031153,1.672822438742754,-0.027824915364504915,3.1303355875664884,0.004872501376283924,0.3427557716518814,-0.03893384411983465,-0.006326559763547693,-0.009194911573014993
1630597358059650,623496.4210245798,4848832.455459971,154.69661499315575,4.647212579227717,1.8118620981049827,-0.030766708338836355,3.136050622039742,0.002723664981751588,0.34982626839289893,-0.013643654900076796,0.025250836194014376,-0.021262271118195137
1630597358309647,623497.5976017888,4848832.911055137,154.6910819614739,4.771310281597951,1.828943176808604,-0.0328891790449383,-3.139137780463322,-0.0022950351440227923,0.35070967689435323,0.005221488413336111,0.011650140602942373,-0.02985580255983199
1630597358559018,623498.8082424647,4848833.353418106,154.67688308955798,4.919345093464761,1.8184049900339208,-0.08170865664810237,-3.140368782908481,-0.006011719926396634,0.3477722514040203,0.022008441539981397,0.01727374567612802,0.016116580793255057
1630597358808993,623500.0540221421,4848833.813637856,154.6577182530036,5.036888408798847,1.9144980965812515,-0.08118457395096457,-3.134708490602642,-0.010732174712476528,0.3407783667808346,0.04459930499460385,0.004864417837921781,-0.053904559543465076
1630597359058991,623501.3399338648,4848834.257788445,154.6327165866355,5.227887594008143,1.7548911628049575,-0.12207907229269717,-3.1366391959478834,-0.01596713236032211,0.325576961148985,0.0769663980798433,0.05557696866442827,0.029700715124295805
1630597359308977,623502.6570153474,4848834.70264588,154.60388536542422,5.346655316071987,1.7898336566699118,-0.11764512621166268,-3.123645247656043,-0.013954542135266909,0.3002167663120525,0.10993628363424507,-0.018801038496613482,-0.05642485845743394
1630597359559597,623504.030632308,4848835.071308156,154.57221050395856,5.541041726721703,1.443326595204001,-0.10735677174268382,-3.1349707973683776,-0.008455400882853074,0.27383109892312746,0.13329682592107595,-0.034057123944942556,-0.005365535185863677
1630597359810208,623505.4463073765,4848835.457173932,154.54463792653652,5.759287023293576,1.4959584144259983,-0.11738075027396987,-3.1248737752476026,-0.0065376706935033465,0.2422198648070476,0.10638804455033145,-4.398291034044053e-05,-0.06324500400889596
1630597360060822,623506.9213103636,4848835.771574059,154.5271510950213,5.9930948685471,1.1149728915878292,-0.08012637270417922,-3.1340715168776794,-0.011019658824440535,0.21516640332608497,0.12043888790963335,0.004163205173722785,0.0426849380279004
1630597360310813,623508.4311720448,4848836.076643165,154.4950513010797,6.152758372955474,1.1197597289197811,-0.11977337277551837,-3.1290102332986134,-0.009418199355522542,0.1837327383329132,0.10942258169156643,-0.00459792604800086,-0.052349261990080526
1630597360560178,623509.9807554792,4848836.343158777,154.4713946248693,6.261128134829634,0.8745631893687446,-0.09659994450409543,-3.126943321882928,-0.0118400086711908,0.15226228455714996,0.15595960542739387,-0.012772836156399398,0.07648150451001463
1630597360809549,623511.5593637855,4848836.542965018,154.44330543676801,6.390949860648634,0.802777174133059,-0.11694547490704044,-3.1245560662963743,-0.005597971855753913,0.11550160750246508,0.15321644325762812,0.07778914192859263,-0.045333376387546025
1630597361060165,623513.1800554275,4848836.695520345,154.42807421111928,6.564547670078006,0.45792704103371634,-0.02938427599595457,-3.1208981240411076,-0.009552790334340151,0.07658803835803582,0.1753458108420079,0.023736987334769147,-0.06232356013977015
1630597361309530,623514.8241488806,4848836.773904917,154.39737680670135,6.669759211911071,0.1905030324117957,-0.1430494472913698,-3.118237212788259,-0.016276219922536684,0.030238966317923815,0.19226418253368419,0.04110814863509628,0.022945734407784402
1630597361559517,623516.4916919781,4848836.771211213,154.36440460642504,6.672911343467634,-0.1064941629975126,-0.1645456356850959,-3.11618317922999,-0.023383258920376713,-0.01893409413004457,0.20828498660508318,-0.004569203201515561,-0.02252206382732422
1630597361809512,623518.1548214725,4848836.685309806,154.3236549164647,6.605394714760442,-0.5169625344538578,-0.13814531803129387,-3.1125741133221534,-0.013942358844122165,-0.07174238183893862,0.20784721794697963,-0.09707321200507492,-0.010471290316408347
1630597362060125,623519.8185324123,4848836.502862242,154.29265813039981,6.667305400227051,-0.8757114252680068,-0.09641837355056311,-3.113106690430701,-0.006437666884527064,-0.12558278128372105,0.21265881000918035,0.026658294000330075,-0.03847098254566912
1630597362310745,623521.4769820285,4848836.242307643,154.27958366693002,6.5371441965129256,-1.2852271214303832,-0.0580733582781518,-3.10792288107664,-0.013238229697925551,-0.17788117975466933,0.2086203772045258,-0.0043944088785068365,-0.0005026761079248944
1630597362560113,623523.0861648809,4848835.889196068,154.25591884267376,6.413585093312506,-1.575070608045316,-0.12165449326782578,-3.1099057994726995,-0.005938425451943532,-0.23026963088640232,0.21160070998362981,-0.01781505910114029,-0.010389152849575043
1630597362810101,623524.681391721,4848835.456178234,154.2386008969878,6.333024434877569,-1.897281692388564,-0.020962525384130987,-3.108377725136521,-0.014009652609007505,-0.2820822383146283,0.19680137827400107,0.036371645686021525,0.00811317543430453
1630597363059468,623526.2389750496,4848834.957827274,154.2159989045338,6.216186700939971,-2.1041757225652185,-0.1577210078791402,-3.1003702260074557,-0.01160378063797785,-0.3357214472553859,0.23657625647075534,0.004996249652635743,-0.06718671949781833
1630597363308835,623527.7721749783,4848834.3595127845,154.18519908727328,6.153675867950159,-2.6139731666317245,-0.10730218206278747,-3.0952904872880955,-0.023326620847917572,-0.39506010838970457,0.2435622893647189,0.057738308155278195,-0.060478957086105185
1630597363558825,623529.2711084274,4848833.660280747,154.14687168899465,5.893549272018925,-2.9481228257769487,-0.1957472706387482,-3.090037266048756,-0.02672836472195497,-0.46403559708638425,0.280891418741245,-0.2167035208299144,-0.10703278075261587
1630597363808191,623530.7208322597,4848832.843767864,154.09965815925673,5.741725964211452,-3.5312339559327475,-0.16565085918708822,-3.0909147267208645,-0.008677685254908096,-0.5358579921470938,0.29113907859024685,-0.1091649513469016,0.02869127505518924
1630597364058183,623532.144751093,4848831.887941351,154.07953951581817,5.642956326336957,-4.031888053687705,-0.04108550258246957,-3.094855544922088,-0.003312824186783469,-0.6100817011103593,0.3007461466406195,-0.009934724182184732,0.006901800978535837
1630597364308178,623533.5307717953,4848830.82317631,154.0672253435222,5.514378483182499,-4.435028136914759,-0.03420785881720684,-3.092741576960509,0.00306119771405118,-0.6828449213617911,0.2779177422031411,0.10240040096209971,-0.048243852008304285
1630597364558161,623534.8659818143,4848829.6495471,154.06926756954508,5.216878173389004,-4.904945341414064,0.04039825981360731,-3.0886686502489065,0.013533849596049084,-0.7472271977093852,0.24588960101089305,-0.12874484913952883,-0.02625659234728556
1630597364808780,623536.147400363,4848828.354361912,154.08167589959695,5.085496262580752,-5.3703199415165495,0.10359522457535557,-3.095376455862371,0.021489284164288833,-0.8071359538161428,0.20411859737936525,-0.005274810495944367,0.07147787488026419
1630597365058772,623537.3874676075,4848826.955069216,154.1071569003139,4.970609408382299,-5.658549866663712,0.07894232921298747,-3.1042558782865117,0.010705253155999609,-0.8509822084032891,0.15388141491298474,0.013381414640234747,0.02100966642772206
1630597365308765,623538.5999768152,4848825.498234423,154.11540654455587,4.8570051327396255,-5.906693267184528,0.01514911715240655,-3.1090247583883377,0.0146704933565812,-0.8865894500009279,0.14562411328301814,-0.0020956045887939702,-0.000238193311761621
1630597365559382,623539.800402905,4848823.975295939,154.12876299043145,4.792322913737981,-6.181484456008003,0.07195740885827075,-3.1048581463946143,0.014163889975569107,-0.9216490529489001,0.12586250557044912,0.011281860716662094,-0.007737339849529726
1630597365809370,623540.9759288391,4848822.390028137,154.142266224985,4.736478320415551,-6.4363957845086475,0.057511210518941494,-3.1016457879795283,0.018088592876536348,-0.9477563594219712,0.0865394155846465,0.02649450930595996,-0.01233619938513648
1630597366059986,623542.1620162637,4848820.756199984,154.1610897201946,4.763903961269712,-6.639194256219216,0.07686275997862269,-3.0868501219970357,0.015393326994437804,-0.9654936247607964,0.06770507840743258,0.07510552740936273,0.016945196667339495
1630597366309983,623543.3278716741,4848819.077575542,154.17716404750277,4.661904668430695,-6.757526144197186,0.04239022906690887,-3.079948777523243,0.007530399164360087,-0.9786864977402813,0.03385587687813088,0.028261454366480473,0.01544433686844671
1630597366559971,623544.4752590302,4848817.375644966,154.18181897074845,4.57940324976194,-6.825810022517578,0.013776349855967929,-3.07947471766654,0.0035131409980853367,-0.9840231663622121,0.005700132195961954,-0.05320540988349867,0.03318561842013426
1630597366809337,623545.6162485994,4848815.671186458,154.18025249429317,4.675543869664527,-6.7706866943983925,-0.01446738494768135,-3.0844088148261357,0.0022623568159565273,-0.9794194017740553,-0.0431194103758401,-0.0044937551923722755,-0.004388046291524879
1630597367058702,623546.7762495219,4848813.975747825,154.17539858305003,4.771840147986759,-6.689888653089697,-0.028821901601889188,-3.08881466060624,-0.001831067426858215,-0.9666638189581944,-0.06197602294628672,-0.018288472328752907,-0.010002777103381755
1630597367308698,623547.9659858957,4848812.3041901905,154.1653387274297,4.879630663675132,-6.600600795477515,-0.05460357443964059,-3.09204403170232,0.0003621741203863675,-0.9478711614367614,-0.08617980267179938,0.006805440798952341,-0.003610351815720673
1630597367558687,623549.1994560385,4848810.65848828,154.154222713892,5.099709364261901,-6.462182629439062,-0.04891653209892355,-3.089514242711078,-0.007790612523189285,-0.9264155076135546,-0.08444445962714925,0.1276568145629653,0.04760555275367235
1630597367809303,623550.4625759341,4848809.04562637,154.1343507433864,5.093316627434309,-6.29679221617219,-0.0883662205399392,-3.0908432383435223,-0.0035791080226737775,-0.9039172500923043,-0.08706278790247757,-0.1206886654343753,-0.07899885150834832
1630597368059293,623551.7502890086,4848807.4718717,154.12096670067393,5.273125034918249,-6.214923655041017,0.00745650545029275,-3.0933968728848447,0.002114087614634578,-0.8830187163434791,-0.0848098189582308,0.01949244530062008,0.009361400869844688
1630597368309908,623553.0632594513,4848805.9145204825,154.12118212972052,5.319457532293872,-6.062003148855774,-0.025938842576438914,-3.0994025610584464,-0.0024285926689322176,-0.8621421319125762,-0.07553235021960433,0.044759834211704215,-0.006139007102705682
1630597368559906,623554.399884909,4848804.42177492,154.1136282281438,5.3420694487350255,-5.873731351637293,0.00032678434658273137,-3.098112253436892,0.0061700310255263045,-0.8409086634461677,-0.09077677874624192,-0.06408854774072717,-0.026356198210237443
1630597368809890,623555.7498885564,4848802.963544666,154.1234145048123,5.508328636416631,-5.722466527499524,0.08084957118689348,-3.1020948786348677,0.017175115478461796,-0.8205864072031545,-0.07510441269373655,0.0007755119123838903,0.017849149453702477
1630597369059264,623557.12384405,4848801.53139853,154.14516893883115,5.584997949387678,-5.638060390536834,0.0658774456732109,-3.107472708835391,0.003823501947669095,-0.799805540994512,-0.09586080518726667,0.06804520349457355,0.03693682439952767
1630597369308627,623558.5142007773,4848800.165885759,154.1507538155236,5.610607944008874,-5.322981513857475,0.006823246880496792,-3.101109333254352,0.008411843309052234,-0.7786157830574327,-0.104139119341403,-0.020957628468021443,-0.052188720236588146
1630597369558623,623559.9233970641,4848798.830729142,154.16033122353443,5.762014376278533,-5.235856756286975,0.08338185880087637,-3.1025204893193097,0.01325053570845894,-0.7553584621516838,-0.07895951001785664,0.07265133927000125,0.04986343632339018
1630597369808615,623561.3531202959,4848797.516215701,154.17505675648562,5.783321169993453,-5.130205997475064,0.01687031508305009,-3.1079095706538626,0.0004854511437213601,-0.7343735126190041,-0.0835749428834999,-0.0037031975263752165,0.06931878051101203
1630597370059228,623562.7969593061,4848796.262993872,154.1768071878682,5.811707030786165,-4.811743399506005,-0.008816402569503903,-3.108615556756705,0.010317479388422039,-0.7130573528869895,-0.08194615719425234,-0.03333613463091693,-0.09306402928161077
1630597370309846,623564.2641168929,4848795.038855085,154.18280735223973,6.011266124654567,-4.858311119238639,0.10328067269438122,-3.109949753625673,0.006998817238180772,-0.6899074797704724,-0.07642629679466324,0.13249369687422746,0.09247497128631554
1630597370560463,623565.754038298,4848793.843308363,154.19323334449484,5.901661882537321,-4.648770110646655,-0.06621458892665949,-3.1138325363015738,-0.00995808237336023,-0.6704314046914847,-0.08910372281022397,-0.039232361792733386,0.01237413324957513
1630597370810453,623567.2427311796,4848792.70168072,154.16595642678084,5.996653761157511,-4.517968439694127,-0.062289651577284874,-3.118595198099834,0.0025339896996442617,-0.6483366571886017,-0.0868664494298601,-0.006339271360742743,-0.007979923646364984
1630597371059820,623568.7593156132,4848791.598996213,154.1629308204854,6.138155203647573,-4.313749364839621,-0.014835838263668494,-3.116432414967294,-0.004108886213623478,-0.6273915441456165,-0.07800217422833994,0.010360677407404432,0.031212127988727197
1630597371309194,623570.2831050461,4848790.53523871,154.15135291304773,6.13061861226473,-4.130800224337447,-0.05603287056358207,-3.1175533733880947,-0.00010345117676262473,-0.6082905262648416,-0.07605294993572347,-0.08496634875007145,0.02343006458891334
1630597371558561,623571.8113173835,4848789.507872173,154.14532190305016,6.19144179515466,-3.9535705581587894,0.005099026610023802,-3.1190404519480537,0.004660882277384798,-0.5888718899306652,-0.0762283863454925,0.03579867772487721,-0.03372819122617123
1630597371807929,623573.3483554473,4848788.531996998,154.14806709959657,6.171783361192761,-3.832244557550024,0.004113210907472936,-3.1144764527613664,0.002917069268445024,-0.5690598719538847,-0.07797726135640977,0.02040170989705117,0.01898014390967278
1630597372057918,623574.878548489,4848787.608354639,154.14929661589915,6.094201341085802,-3.517663501494643,-0.0031912218453014063,-3.1086268672472253,-0.0006394537658278196,-0.5478872415218728,-0.0927276615099189,0.020606731622799072,-0.018993758922051487
1630597372307923,623576.3747798466,4848786.74464742,154.14738479322767,5.928844926445794,-3.292353172193903,0.0032294874811579916,-3.1088304781882594,0.003972022889315891,-0.5215975137472969,-0.10232009646390026,-0.01799401800062966,0.004354291503405289
1630597372558525,623577.847466503,4848785.952801605,154.1511037225838,5.830787812441918,-3.0188803679490115,0.02588886138191633,-3.104450833113105,0.0032692576054522532,-0.49766173339928854,-0.09678568192611477,0.042366000272350594,0.02646990149298251
1630597372809144,623579.2721652638,4848785.206223803,154.1570091117986,5.605484857248616,-2.716063427924337,0.0216368868663288,-3.1132663332234145,0.00239304760599737,-0.46890714130763356,-0.1479029272081665,-0.06876297205489999,0.008734387271979947
1630597373059135,623580.6533525006,4848784.57620298,154.1610894448338,5.462536146653253,-2.2509569366160505,0.009357386318519961,-3.1135476186586577,0.01064957455271828,-0.4208764745481607,-0.22700636213323291,-0.043744832693482165,-0.003551953225851105
1630597373309759,623582.0025380715,4848784.054329007,154.1721214095593,5.315011702095058,-1.776644228988935,0.07555391876974639,-3.1157220468932705,0.006776850974709967,-0.35645056655030716,-0.2861440158434094,0.0370432465123431,0.0107011080905793
1630597373560371,623583.2988371681,4848783.669675597,154.18549782508575,5.02325085032599,-1.242269347821768,0.014084720259507407,-3.1192409299441093,0.005690055445300596,-0.27475862886125413,-0.36479524411845904,0.0007897775068470981,-0.0005281987711383528
1630597373810366,623584.5238322172,4848783.43928398,154.18778183579303,4.764587435517326,-0.6036279346909552,0.021067193980216926,-3.120289876423736,0.004104225422804077,-0.17809489883625712,-0.3905245716741734,0.022727808623067204,-0.002352061647838423
1630597374060355,623585.6639994748,4848783.356785477,154.1947863848143,4.3381819762638525,-0.09089714570717006,0.015495639751097044,-3.1187629390461344,-0.002188538010182444,-0.07527573403417159,-0.43322915626773,0.0017061843062162654,0.024847934179910894
1630597374310356,623586.70184403,4848783.394523372,154.19255554824267,3.949924220602347,0.4546579332809326,-0.027118681196892768,-3.1221882948273048,-0.000209398600304651,0.03638907291457809,-0.4589378430195591,0.011884417854758368,-0.018646926697264705
1630597374559718,623587.6389454992,4848783.5639052875,154.1881249704256,3.5535248729507445,0.8578516105943139,-0.004786336801253356,-3.117830330849168,-0.0025904761899195974,0.15375470095657487,-0.4896673662260055,-0.003562835089254351,0.004961755433427304
1630597374809086,623588.4813638129,4848783.8035213025,154.18600834281648,3.141739181069354,1.1976512836266595,-0.009468353929220408,-3.127423657673324,-0.003938605801267981,0.2787676021986787,-0.5260212385815632,0.0152056505608256,0.0322889078798487
1630597375058451,623589.2188144187,4848784.151295516,154.17813173943858,2.717122588249561,1.658132988360864,-0.03858576864782021,-3.129863911048808,-0.0021904729103904043,0.41372649860126104,-0.5702271575200337,-0.06277581351375917,-0.029044177440123477
1630597375308444,623589.8688047541,4848784.597966752,154.17073304032422,2.426871125840853,1.9503951410536529,-0.021278871411832462,-3.1277930117413133,-0.0010452935193974078,0.5595500266456376,-0.5996769121122132,0.007515803294950463,0.00511372763038401
1630597375558435,623590.4340547242,4848785.1182584,154.16460312390845,2.0152942011745663,2.2648486911668657,-0.02775425112434209,-3.1335762976504844,-0.003929124177330284,0.7126183938558399,-0.6359891784972151,0.0328695998733137,-0.019845166534599865
1630597375808431,623590.8861906296,4848785.719579483,154.15711571382658,1.5518443640929827,2.540237595608836,-0.038035746972225844,-3.1327400691125766,-0.0072348431153327255,0.8720584831098054,-0.6268649668456932,0.008151540954453633,-0.024441986338936524
1630597376059671,623591.2261824196,4848786.380894806,154.14603663927457,1.1245519323470026,2.6896514804782474,-0.05135741859484649,-3.130090044198442,-0.01099527705733176,1.0324498068564634,-0.6392421983800252,0.04136645693490926,-0.013180299425632223
1630597376310288,623591.4615534534,4848787.065304677,154.13219290631588,0.6986458663786619,2.7850158937400122,-0.04781557724294923,-3.1355874427334265,-0.012920924911509226,1.1936182809316123,-0.6385258461997422,0.028549479578262163,-0.000532407139789952
1630597376560284,623591.576463078,4848787.772694475,154.1200463546305,0.22330568472179596,2.8439792122785894,-0.06441065137034971,-3.1409238901958605,-0.019771839878276305,1.3556236849845098,-0.645917693239028,0.03202601015279727,-0.013076482801446965
1630597376810277,623591.5717267587,4848788.482603034,154.10176346138664,-0.2502291761324045,2.821449696977306,-0.07659374760564246,3.1374297796216712,-0.02325003870636351,1.5174550925763997,-0.6483563725614311,0.029125682001799474,-0.013346221680849285
1630597377060267,623591.4498029232,4848789.18199406,154.08302952837278,-0.745124057771124,2.757579595451765,-0.06907012039997285,3.1342542565074942,-0.023424859289135742,1.6816312438324108,-0.6636206545425091,-0.0002748265444851854,0.0075870457559731215
1630597377309638,623591.216699143,4848789.863756243,154.06404193864432,-1.1754193316252786,2.696831056650916,-0.08140839364351529,3.1275017225226223,-0.020888448902162786,1.8502727641801788,-0.6939643195624987,0.07543371813786655,-0.008209276157125564
1630597377559004,623590.865183305,4848790.527217364,154.0436963431033,-1.7326647455761757,2.605835177862813,-0.08506906649822868,3.1158411190802866,-0.01623232231736119,2.025686294638837,-0.7217290259253941,0.06374339736247703,-0.009989833227256016
1630597377808365,623590.3648027229,4848791.161683436,154.0242120448164,-2.361607737266635,2.4108075805729436,-0.06019526695902956,3.110011452827173,-0.009169306107613618,2.2046065983490295,-0.7178837792452312,0.020164019459698885,0.04014459674978108
1630597378057737,623589.7074521937,4848791.743883946,154.01024265858192,-2.944573956191026,2.1884904879275053,-0.06510024930386149,3.1129678439045065,-0.0017385179892457235,2.3808107789033683,-0.6793347518110249,0.012631315058421546,0.03750674505257698
1630597378308359,623588.9089720664,4848792.272943784,153.9939909361271,-3.468987123201011,1.962685787171008,-0.05002213253815711,3.1118749598253723,0.0055501139624559645,2.5404809741349172,-0.5899779811929855,0.0472752465532341,-0.03695414091442979
1630597378558973,623587.9704357536,4848792.733498428,153.99078168840506,-4.005396794666469,1.6274663799771392,0.0017046047372577255,3.1087803859898324,0.004135201427555969,2.6785018545858965,-0.5150268124159373,-0.016506773484231994,-0.02322654005706741
1630597378810215,623586.915110609,4848793.109071374,153.98564103797784,-4.380406206854258,1.2861326911570305,-0.031180337142471218,3.1056014390842246,0.0028838799084653466,2.7998301299327943,-0.44493963416793697,0.012506534133968605,0.0020699035571447033
1630597379060831,623585.7765142112,4848793.3785337685,153.98319179116305,-4.692525622151477,0.8866397507728161,0.006884375426520484,3.1161610723397115,0.009426070800604688,2.899788845032907,-0.3469028686208591,0.029353891123532677,0.012504940479642422
1630597379311452,623584.5686705885,4848793.580831375,153.98017193182082,-4.950062971489629,0.8373859113829467,-0.018339741416273023,3.121281636724677,0.016465099197917277,2.9726162085146557,-0.2336523959902964,0.013863780358672063,0.030287508683603147
1630597379560820,623583.2849959502,4848793.735399311,153.98650348908575,-5.24556922915338,0.4856352136627321,0.0622648868977843,3.1231599341961873,0.009641803155889458,3.019035065150694,-0.1400926845142884,-0.027094669287512717,0.007267507255074773
1630597379810190,623581.962277525,4848793.849080534,153.99699536833313,-5.341185716662684,0.4955772780026276,0.006055227874937862,3.1305309358143014,0.009041702304170066,3.045527141283172,-0.07580524584512952,0.037628976107286785,-0.03714155565195033
1630597380059559,623580.6187573688,4848793.970200809,153.99683610160886,-5.531482834568787,0.3808450278782316,0.027401685237109494,3.1192206295775926,0.02058698007132192,3.058843616724018,-0.033748129484953475,0.014350695443866312,-0.027723194742209762
1630597380308935,623579.2066914683,4848794.069179646,154.01075719880123,-5.77341940186205,0.38621135510490273,0.07368623432691915,3.131625853071042,0.01811614019767582,3.0562663082681314,0.057507173583717944,-0.05187636180666098,0.030770597475767422
1630597380558292,623577.7515168543,4848794.216531086,154.02651878698057,-5.879195363975931,0.6487521591366024,0.0343471961115849,3.127281961973196,0.010534406582469623,3.0347229006569574,0.10520824493490766,0.0013927232210693985,-0.03872777092404542
1630597380807658,623576.2692390028,4848794.398706113,154.03022238323547,-5.987866235156275,0.7785404574324505,0.022723304003906104,3.1337797750853524,0.009542039059083879,3.006943763842695,0.1187173601360179,0.008071817848668129,0.07189807556706022
1630597381057649,623574.7673325696,4848794.636841414,154.03788720842022,-6.1002525692250655,1.067396649025756,0.004836174983849556,3.137354291501165,0.01969658161403186,2.9715114400496665,0.17268982746986342,0.039404660892499915,0.04386509950162803
1630597381308272,623573.2062952116,4848794.951055463,154.04868416153184,-6.344253769401255,1.4036763887910038,0.09341280339088787,3.1407948005188033,0.017974624716346088,2.925521755159707,0.19166640678078983,-0.05387352923187771,-0.017541321562289824
1630597381558889,623571.6179458684,4848795.359105474,154.07143909044854,-6.3165257429031785,1.7278869040591818,0.04905645326875414,3.135972363240361,0.011003795769924263,2.877206121358575,0.20220327282024947,0.021789391506278635,-0.03968283024497274
1630597381808878,623570.0536398211,4848795.844295824,154.07823973799324,-6.276141447399744,2.079428803588199,0.04719484032069228,3.1339112150234216,0.01552473052987752,2.8275030404769534,0.1924632064148553,0.028165698553638027,-0.058579817837318526
1630597382059503,623568.4909585225,4848796.416911662,154.09352644045734,-6.214070311726593,2.413471217196983,0.05511483666442425,3.130170154540592,0.013111926791794376,2.777725710025514,0.1993924881965864,0.009307445845656548,-0.04592650465585814
1630597382309500,623566.9496590388,4848797.07129392,154.1048928976427,-6.1625814911371934,2.7500289920589047,0.03233737726807394,3.125906674306801,0.012653000255411802,2.7272099023895584,0.20745258477842998,-0.003004209669724671,-0.06986472970928058
1630597382559486,623565.4183696466,4848797.810913406,154.11262949026892,-6.110229888237028,3.098289346626083,0.031030282479337506,3.1253437669124877,0.007826619486911534,2.6760561632266926,0.20140659818653306,-0.026620596506984878,-0.01884896231949784
1630597382808850,623563.9176953634,4848798.637301448,154.11447396812298,-5.991790093954171,3.428521150277586,-0.01403314237418507,3.1219078097761592,0.005049307651065573,2.624969956303339,0.2105659456739937,0.016850027924502704,-0.016624415061908895
1630597383058223,623562.4451899439,4848799.54341939,154.11221205076387,-5.873143457850292,3.7528070207711,-0.002871407276068466,3.123835210711712,0.0060429959980240035,2.5729755707804536,0.1980369179664279,-0.009182593098206968,0.02435346203475045
1630597383308212,623561.001543938,4848800.53734816,154.10902145933224,-5.707012813454995,4.13572466054894,-0.017458304802869182,3.12390607525318,0.0026317772454526847,2.5213187087949045,0.2064340045623236,-0.011998948131536187,-0.048696511913756346
1630597383558204,623559.6067280634,4848801.615570286,154.10597988509903,-5.461747632669353,4.4181728462401955,-0.025412198359678118,3.119242781840708,-0.002653654518704908,2.4705447365395456,0.20326449415678688,0.04487833658226063,-0.01810829376709042
1630597383808198,623558.2818059252,4848802.75579044,154.09418694751454,-5.278545733149689,4.653720484738267,-0.07424537108868379,3.1100306388139782,0.0014243760504971553,2.4235224860647158,0.1946379751177265,0.01830353904734294,0.007183073402794776
1630597384058814,623556.9826707806,4848803.96166855,154.08563207316826,-5.0918874337770275,4.858507545493484,-0.021039333623365394,3.1125414274028826,-0.005378917408473873,2.3779151737415987,0.17648318233097282,-0.02389660391666468,-0.016915210370267646
1630597384310061,623555.7614851497,4848805.209643651,154.07375865096554,-4.779377941790541,5.02260694428763,-0.06112380522294811,3.11425220780526,0.005610844109866639,2.331896335379949,0.18427821703847871,0.024452239126780587,0.06798789830285251
1630597384560055,623554.5924880668,4848806.494799814,154.07661004216885,-4.631941298626214,5.184402947707751,0.08556635144911787,3.1272249190562866,0.013312077762126652,2.288141741842938,0.1570478519986681,-0.07140654633856383,0.08757166269166264
1630597384810044,623553.4830690525,4848807.829120719,154.08987933148245,-4.338081716117147,5.391393807356561,0.03531302861095259,3.126263247447394,0.008786909331187647,2.2528364873703874,0.13018514456241792,-0.029214951715938572,-0.005305254695337899
1630597385059412,623552.4127416104,4848809.177232922,154.10075183546402,-4.178202763738009,5.367612147135852,0.025377379539308485,3.1311760699767945,0.0012786570657993476,2.224052815360685,0.1110463837844332,0.002478794005582131,-0.008149112395914327
1630597385309423,623551.4286341924,4848810.5323378965,154.10188544666312,-3.876965891855639,5.464373242387801,-0.016434943373722866,3.1232167684053587,0.012082155218140172,2.198679566666801,0.08799883679588956,0.1030237903884252,-0.047215536574789135
1630597385558777,623550.469636428,4848811.90653765,154.11095987985314,-3.906720356602196,5.497979167083844,0.08247707188649475,3.115825608530988,0.008437062840642422,2.179436073602715,0.06643011613999512,-0.03162333016201193,-0.06605866459629547
1630597385808146,623549.5290629001,4848813.283106755,154.12175310852206,-3.674757866661675,5.4786464437494224,-0.008379227225546099,3.114736262705221,0.0015257445468565495,2.1640187746843687,0.05611634422256651,0.05215978610101137,-0.03067532628145961
1630597386057514,623548.6325855926,4848814.646986826,154.1180988761722,-3.621306817378304,5.454088444708378,-0.00038191665500908467,3.1093275447840565,0.00756963650644667,2.1553174343082238,0.015526922874736442,-0.0009114932769734045,0.015014128365426305
1630597386307507,623547.7265359586,4848816.01126212,154.12350178024604,-3.61804015310112,5.437544645745443,0.028322339740819047,3.11065694880241,0.004935359720919219,2.1523258046547347,0.006811943054984266,-0.030807557436520985,0.011081333634969109
1630597386558124,623546.829909307,4848817.370211676,154.12580035803563,-3.591089420930314,5.3891348527282155,-0.005829357487393411,3.1099998044214736,0.003432060462264324,2.1533584911644463,-0.008903946267141121,0.01113365746302144,-0.0058350513643059074
1630597386808742,623545.9302352923,4848818.7173497025,154.1243949071067,-3.6527314022792226,5.301899320622134,-0.0009083702204623623,3.1109806594225,0.001929612709503158,2.1565965316612505,-0.015694532121556252,-0.04886803453681244,0.02645270192864996
1630597387059361,623545.0334740493,4848820.055760377,154.1211354783434,-3.603180319294892,5.310550722441394,-0.027610639020198918,3.1089631938821958,0.0016149358799850617,2.1609947197122383,-0.012546240155394446,0.03626447172528563,-0.03349764096406669
1630597387309977,623544.1309029771,4848821.388299813,154.1158848871703,-3.64805347175826,5.275455658403065,-0.018264048843455283,3.1086436173968943,-0.00039975825586773033,2.165189849946813,-0.023396405651484747,-0.025802181976967938,0.029648336176440023
1630597387559974,623543.226012446,4848822.707445536,154.10901895822838,-3.637582137802607,5.263590734238103,-0.04248938321120113,3.1063998412568727,-0.0010336905599444238,2.1733805508351884,-0.032582934949533855,0.00943367546676364,-0.009530970383838332
1630597387809968,623542.3106045563,4848824.016953497,154.09947730273498,-3.719072454790474,5.179848339873875,-0.02401309990602124,3.1025300883980194,-0.002689217149009502,2.183559152601149,-0.05365691646684069,-0.008593474849223175,0.003702084648175043
1630597388059333,623541.3795702561,4848825.303840694,154.0898698270804,-3.817011307732048,5.1053191483370055,-0.0610762692227044,3.1017456707453097,-0.001658014937240918,2.2002983263747034,-0.07575422058350136,0.00859242101203773,-0.013364373690936394
1630597388308711,623540.4214039794,4848826.573854769,154.07971949360336,-3.955728526575128,4.991975960742448,-0.0200652079196231,3.09742919005086,-0.005018583625479468,2.2237902948449118,-0.10691470217517711,-0.0044346627341109906,-0.010859829265659855
1630597388558073,623539.428052478,4848827.806373566,154.0674524705681,-4.1024304988891,4.856034697167997,-0.07674525478956287,3.0971310780006767,-0.004056605866524333,2.254627670096804,-0.13416364428617528,-0.004900739096413272,-0.0024466768104942226
1630597388807441,623538.3853309738,4848829.01226107,154.05019347051686,-4.247068466790477,4.755797519789803,-0.05122016002909713,3.0934487287840025,-0.012708436495586058,2.2898796589259964,-0.16001726176994102,-0.012479717567157836,-0.04090140850659548
1630597389057434,623537.3057471553,4848830.15955123,154.03428161278643,-4.350742727872348,4.418285981703548,-0.0819241608649375,3.09564446276261,-0.009521328872831884,2.3341631978388877,-0.18882226308924077,0.054897694417108824,0.05655414263420722
1630597389307430,623536.204823081,4848831.234409996,154.01796059803476,-4.598842640323567,4.165861414340371,-0.030456447178172363,3.0913952688460213,0.00934392853275824,2.385527613458915,-0.21737565994804892,0.02393886529127902,0.01698432933874848
1630597389558045,623535.0120255724,4848832.246854505,154.0266264965097,-4.8636823261429685,3.871967732173025,0.08560051248942752,3.0955141352727575,0.006910363792639925,2.4455295673724695,-0.26136112992458077,-0.03187314552122688,-0.003297050753447167
1630597389808663,623533.7844881796,4848833.171962627,154.04074240061564,-5.000197932885029,3.4451504688519177,0.0142129736260595,3.09250149032516,0.009633394920754133,2.5117697829709473,-0.27522073026393584,0.06516149102152932,-0.002321447005769029
